stop_id,stop_name,stop_lat,stop_lon,platform_code,parent_station,location_type
stops:007015400,London Saint Pancras International,51.5310399,-0.1260606,,,1
stops:007015400:0,London Saint Pancras International,51.5310399,-0.1260606,,stops:007015400,0
stops:007015440,Ebbsfleet International,51.44304,0.32107,,,1
stops:007015440:0,Ebbsfleet International,51.44304,0.32107,,stops:007015440,0
stops:008008094,Düsseldorf Hbf,51.219962,6.794319,,,1
stops:008008094:0,Düsseldorf Hbf,51.219962,6.794319,,stops:008008094,0
stops:008010184,Essen Hbf,51.451355,7.014793,,,1
stops:008010184:0,Essen Hbf,51.451355,7.014793,,stops:008010184,0
stops:008010316,Duisburg Hbf,51.42978,6.7759037,,,1
stops:008010316:0,Duisburg Hbf,51.42978,6.7759037,,stops:008010316,0
stops:008011068,Frankfurt am Main Hbf,50.1071318,8.6653708,,,1
stops:008011068:0,Frankfurt am Main Hbf,50.1071318,8.6653708,,stops:008011068,0
stops:008011090,Frankfurt am Main Flughafen,50.051696,8.569853,,,1
stops:008011090:0,Frankfurt am Main Flughafen,50.051696,8.569853,,stops:008011090,0
stops:008015345,Aachen Hbf,50.770832,6.105275,,,1
stops:008015345:0,Aachen Hbf,50.770832,6.105275,,stops:008015345,0
stops:008015458,Köln Hbf,50.942721,6.958823,,,1
stops:008015458:0,Köln Hbf,50.942721,6.958823,,stops:008015458,0
stops:008015588,Siegburg,50.793916,7.203029,,,1
stops:008015588:0,Siegburg,50.793916,7.203029,,stops:008015588,0
stops:008032572,Limburg Süd,50.3825,8.096112,,,1
stops:008032572:0,Limburg Süd,50.3825,8.096112,,stops:008032572,0
stops:008039904,Düsseldorf Flughafen Hbf,51.292008,6.786837,,,1
stops:008039904:0,Düsseldorf Flughafen Hbf,51.292008,6.786837,,stops:008039904,0
stops:008200100,Lëtzebuerg,49.599996,6.133331,,,1
stops:008200100:0,Lëtzebuerg,49.599996,6.133331,,stops:008200100,0
stops:008200110,Mersch,49.748893,6.106111,,,1
stops:008200110:0,Mersch,49.748893,6.106111,,stops:008200110,0
stops:008200120,Ettelbréck,49.847496,6.104169,,,1
stops:008200120:0,Ettelbréck,49.847496,6.104169,,stops:008200120,0
stops:008200130,Kautebaach,49.952777,6.020003,,,1
stops:008200130:0,Kautebaach,49.952777,6.020003,,stops:008200130,0
stops:008200132,Wilwerwiltz,49.988887,5.999166,,,1
stops:008200132:0,Wilwerwiltz,49.988887,5.999166,,stops:008200132,0
stops:008200133,Drauffelt,50.017778,6.006106,,,1
stops:008200133:0,Drauffelt,50.017778,6.006106,,stops:008200133,0
stops:008200134,Clervaux,50.054724,6.031393,,,1
stops:008200134:0,Clervaux,50.054724,6.031393,,stops:008200134,0
stops:008200136,Troisvierges,50.121109,6.000281,,,1
stops:008200136:0,Troisvierges,50.121109,6.000281,,stops:008200136,0
stops:008200510,Bertrange Strassen,49.613002,6.060601,,,1
stops:008200510:0,Bertrange Strassen,49.613002,6.060601,,stops:008200510,0
stops:008200516,Mamer,49.625663,6.02014,,,1
stops:008200516:0,Mamer,49.625663,6.02014,,stops:008200516,0
stops:008200518,Kapellen,49.644996,5.990833,,,1
stops:008200518:0,Kapellen,49.644996,5.990833,,stops:008200518,0
stops:008200520,Klengbetten,49.646389,5.916385,,,1
stops:008200520:0,Klengbetten,49.646389,5.916385,,stops:008200520,0
stops:008200940,Rodange,49.551283,5.845028,,,1
stops:008200940:0,Rodange,49.551283,5.845028,,stops:008200940,0
stops:008210014,Mamer-Lycée,49.618415,6.02968,,,1
stops:008210014:0,Mamer-Lycée,49.618415,6.02968,,stops:008210014,0
stops:008400058,Amsterdam CS,52.379128,4.900272,,,1
stops:008400058:0,Amsterdam CS,52.379128,4.900272,,stops:008400058,0
stops:008400180,Dordrecht,51.799998,4.666668,,,1
stops:008400180:0,Dordrecht,51.799998,4.666668,,stops:008400180,0
stops:008400219,Eijsden,50.772135,5.709786,,,1
stops:008400219:0,Eijsden,50.772135,5.709786,,stops:008400219,0
stops:008400280,Den Haag HS,52.083329,4.299999,,,1
stops:008400280:0,Den Haag HS,52.083329,4.299999,,stops:008400280,0
stops:008400424,Maastricht,50.85,5.683331,,,1
stops:008400424:0,Maastricht,50.85,5.683331,,stops:008400424,0
stops:008400426,Maastricht Randwyck,50.838502,5.716707,,,1
stops:008400426:0,Maastricht Randwyck,50.838502,5.716707,,stops:008400426,0
stops:008400526,Roosendaal,51.533333,4.466667,,,1
stops:008400526:0,Roosendaal,51.533333,4.466667,,stops:008400526,0
stops:008400530,Rotterdam CS,51.925093,4.469424,,,1
stops:008400530:0,Rotterdam CS,51.925093,4.469424,,stops:008400530,0
stops:008400561,Schiphol,52.308294,4.762268,,,1
stops:008400561:0,Schiphol,52.308294,4.762268,,stops:008400561,0
stops:008500010,Basel,47.547408,7.590716,,,1
stops:008500010:0,Basel,47.547408,7.590716,,stops:008500010,0
stops:008711184,Marne-la-Vallée - Chessy,48.868256,2.782184,,,1
stops:008711184:0,Marne-la-Vallée - Chessy,48.868256,2.782184,,stops:008711184,0
stops:008718201,Colmar,48.083335,7.366668,,,1
stops:008718201:0,Colmar,48.083335,7.366668,,stops:008718201,0
stops:008718206,Mulhouse,47.749998,7.333336,,,1
stops:008718206:0,Mulhouse,47.749998,7.333336,,stops:008718206,0
stops:008718213,Saint-Louis-Haut-Rhin,47.5907,7.555316,,,1
stops:008718213:0,Saint-Louis-Haut-Rhin,47.5907,7.555316,,stops:008718213,0
stops:008719100,Thionville,49.366663,6.166663,,,1
stops:008719100:0,Thionville,49.366663,6.166663,,stops:008719100,0
stops:008719203,Metz,49.13333,6.166663,,,1
stops:008719203:0,Metz,49.13333,6.166663,,stops:008719203,0
stops:008721202,Strasbourg,48.585437,7.733905,,,1
stops:008721202:0,Strasbourg,48.585437,7.733905,,stops:008721202,0
stops:008721222,Saverne,48.744798,7.362255,,,1
stops:008721222:0,Saverne,48.744798,7.362255,,stops:008721222,0
stops:008721405,Selestat,48.26667,7.449999,,,1
stops:008721405:0,Selestat,48.26667,7.449999,,stops:008721405,0
stops:008722326,Lille Europe,50.636108,3.071516,,,1
stops:008722326:0,Lille Europe,50.636108,3.071516,,stops:008722326,0
stops:008727100,Paris Nord,48.8809984,2.3553093,,,1
stops:008727100:0,Paris Nord,48.8809984,2.3553093,,stops:008727100,0
stops:008727149,Aéroport Charles-de-Gaulle TGV,49.003955,2.571123,,,1
stops:008727149:0,Aéroport Charles-de-Gaulle TGV,49.003955,2.571123,,stops:008727149,0
stops:008728105,Croix l'Allumette,50.675708,3.13381,,,1
stops:008728105:0,Croix l'Allumette,50.675708,3.13381,,stops:008728105,0
stops:008728600,Lille Flandres,50.633333,3.066669,,,1
stops:008728600:0,Lille Flandres,50.633333,3.066669,,stops:008728600,0
stops:008728606,Hellemmes,50.626941,3.108892,,,1
stops:008728606:0,Hellemmes,50.626941,3.108892,,stops:008728606,0
stops:008728654,Tourcoing,50.716663,3.168033,,,1
stops:008728654:0,Tourcoing,50.716663,3.168033,,stops:008728654,0
stops:008728671,Croix Wasquehal,50.6764687,3.149272,,,1
stops:008728671:0,Croix Wasquehal,50.6764687,3.149272,,stops:008728671,0
stops:008728673,Roubaix,50.699997,3.166666,,,1
stops:008728673:0,Roubaix,50.699997,3.166666,,stops:008728673,0
stops:008728683,Pont de Bois,50.624164,3.1275,,,1
stops:008728683:0,Pont de Bois,50.624164,3.1275,,stops:008728683,0
stops:008728685,Annappes,50.6228168,3.1473086,,,1
stops:008728685:0,Annappes,50.6228168,3.1473086,,stops:008728685,0
stops:008728686,Ascq,50.616666,3.166666,,,1
stops:008728686:0,Ascq,50.616666,3.166666,,stops:008728686,0
stops:008728687,Baisieux,50.610039,3.2378999,,,1
stops:008728687:0,Baisieux,50.610039,3.2378999,,stops:008728687,0
stops:008728710,Lezennes,50.616666,3.116667,,,1
stops:008728710:0,Lezennes,50.616666,3.116667,,stops:008728710,0
stops:008731388,Haute-Picardie TGV,49.623044,2.802566,,,1
stops:008731388:0,Haute-Picardie TGV,49.623044,2.802566,,stops:008731388,0
stops:008731896,Avignon TGV,43.921433,4.785841,,,1
stops:008731896:0,Avignon TGV,43.921433,4.785841,,stops:008731896,0
stops:008731901,Aix-en-Provence TGV,43.455128,5.317243,,,1
stops:008731901:0,Aix-en-Provence TGV,43.455128,5.317243,,stops:008731901,0
stops:008772202,Lyon-Perrache TGV,45.748360,4.825301,,,1
stops:008772202:0,Lyon-Perrache TGV,45.748360,4.825301,,stops:008772202,0
stops:008772319,Lyon Part Dieu TGV,45.7612738,4.8594013,,,1
stops:008772319:0,Lyon Part Dieu TGV,45.7612738,4.8594013,,stops:008772319,0
stops:008774100,Chambéry-Challes-les-Eaux,45.571498,5.919756,,,1
stops:008774100:0,Chambéry-Challes-les-Eaux,45.571498,5.919756,,stops:008774100,0
stops:008774164,Albertville,45.673624,6.383617,,,1
stops:008774164:0,Albertville,45.673624,6.383617,,stops:008774164,0
stops:008774172,Moûtiers-Salins-Brides-les-Bai,45.486693,6.531454,,,1
stops:008774172:0,Moûtiers-Salins-Brides-les-Bai,45.486693,6.531454,,stops:008774172,0
stops:008774176,Aime-la-Plagne,45.554202,6.648394,,,1
stops:008774176:0,Aime-la-Plagne,45.554202,6.648394,,stops:008774176,0
stops:008774177,Landry,45.574194,6.733522,,,1
stops:008774177:0,Landry,45.574194,6.733522,,stops:008774177,0
stops:008774179,Bourg-Saint-Maurice,45.618826,6.771664,,,1
stops:008774179:0,Bourg-Saint-Maurice,45.618826,6.771664,,stops:008774179,0
stops:008775100,Marseille-Saint-Charles,43.303178,5.380752,,,1
stops:008775100:0,Marseille-Saint-Charles,43.303178,5.380752,,stops:008775100,0
stops:008775500,Toulon,43.1274781,5.9326648,,,1
stops:008775500:0,Toulon,43.1274781,5.9326648,,stops:008775500,0
stops:008775544,Les Arcs - Draguignan,43.4555673,6.4826446,,,1
stops:008775544:0,Les Arcs - Draguignan,43.4555673,6.4826446,,stops:008775544,0
stops:008775605,Nice Ville,43.704605,7.261928,,,1
stops:008775605:0,Nice Ville,43.704605,7.261928,,stops:008775605,0
stops:008775752,Saint-Raphaël-Valescure,43.423456,6.768825,,,1
stops:008775752:0,Saint-Raphaël-Valescure,43.423456,6.768825,,stops:008775752,0
stops:008775762,Cannes,43.553742,7.019895,,,1
stops:008775762:0,Cannes,43.553742,7.019895,,stops:008775762,0
stops:008775767,Antibes,43.586618,7.1201361,,,1
stops:008775767:0,Antibes,43.586618,7.1201361,,stops:008775767,0
stops:008776290,Lyon-Saint Exupéry TGV,45.720907,5.075822,,,1
stops:008776290:0,Lyon-Saint Exupéry TGV,45.720907,5.075822,,stops:008776290,0
stops:008776302,Valence TGV,44.992586,4.978529,,,1
stops:008776302:0,Valence TGV,44.992586,4.978529,,stops:008776302,0
stops:008777300,Montpellier,43.604947,3.880534,,,1
stops:008777300:0,Montpellier,43.604947,3.880534,,stops:008777300,0
stops:008777320,Sète,43.412810,3.696535,,,1
stops:008777320:0,Sète,43.412810,3.696535,,stops:008777320,0
stops:008777500,Nîmes,43.832602,4.365997,,,1
stops:008777500:0,Nîmes,43.832602,4.365997,,stops:008777500,0
stops:008778100,Béziers,43.336177,3.218794,,,1
stops:008778100:0,Béziers,43.336177,3.218794,,stops:008778100,0
stops:008778110,Narbonne,43.190399,3.006010,,,1
stops:008778110:0,Narbonne,43.190399,3.006010,,stops:008778110,0
stops:008778127,Agde,43.317498,3.465800,,,1
stops:008778127:0,Agde,43.317498,3.465800,,stops:008778127,0
stops:008778400,Perpignan,42.695938,2.879397,,,1
stops:008778400:0,Perpignan,42.695938,2.879397,,stops:008778400,0
stops:008811007,Schaarbeek/Schaerbeek,50.878513,4.378636,,,1
stops:008811007:0,Schaarbeek/Schaerbeek,50.878513,4.378636,,stops:008811007,0
stops:008811007:1,Schaarbeek/Schaerbeek,50.878513,4.378636,1,stops:008811007,0
stops:008811007:2,Schaarbeek/Schaerbeek,50.878513,4.378636,2,stops:008811007,0
stops:008811007:3,Schaarbeek/Schaerbeek,50.878513,4.378636,3,stops:008811007,0
stops:008811007:4,Schaarbeek/Schaerbeek,50.878513,4.378636,4,stops:008811007,0
stops:008811007:5,Schaarbeek/Schaerbeek,50.878513,4.378636,5,stops:008811007,0
stops:008811007:6,Schaarbeek/Schaerbeek,50.878513,4.378636,6,stops:008811007,0
stops:008811007:7,Schaarbeek/Schaerbeek,50.878513,4.378636,7,stops:008811007,0
stops:008811007:8,Schaarbeek/Schaerbeek,50.878513,4.378636,8,stops:008811007,0
stops:008811007:9,Schaarbeek/Schaerbeek,50.878513,4.378636,9,stops:008811007,0
stops:008811007:10,Schaarbeek/Schaerbeek,50.878513,4.378636,10,stops:008811007,0
stops:008811007:11,Schaarbeek/Schaerbeek,50.878513,4.378636,11,stops:008811007,0
stops:008811007:12,Schaarbeek/Schaerbeek,50.878513,4.378636,12,stops:008811007,0
stops:008811007:13,Schaarbeek/Schaerbeek,50.878513,4.378636,13,stops:008811007,0
stops:008811007:14,Schaarbeek/Schaerbeek,50.878513,4.378636,14,stops:008811007,0
stops:008811106,Evere,50.86778,4.400965,,,1
stops:008811106:0,Evere,50.86778,4.400965,,stops:008811106,0
stops:008811106:1,Evere,50.86778,4.400965,1,stops:008811106,0
stops:008811106:2,Evere,50.86778,4.400965,2,stops:008811106,0
stops:008811130,Haren-Sud/Haren-Zuid,50.889696,4.415357,,,1
stops:008811130:0,Haren-Sud/Haren-Zuid,50.889696,4.415357,,stops:008811130,0
stops:008811130:1,Haren-Sud/Haren-Zuid,50.889696,4.415357,1,stops:008811130,0
stops:008811130:2,Haren-Sud/Haren-Zuid,50.889696,4.415357,2,stops:008811130,0
stops:008811130:3,Haren-Sud/Haren-Zuid,50.889696,4.415357,3,stops:008811130,0
stops:008811130:4,Haren-Sud/Haren-Zuid,50.889696,4.415357,4,stops:008811130,0
stops:008811148,Buda,50.907495,4.417074,,,1
stops:008811148:0,Buda,50.907495,4.417074,,stops:008811148,0
stops:008811148:1,Buda,50.907495,4.417074,1,stops:008811148,0
stops:008811148:2,Buda,50.907495,4.417074,2,stops:008811148,0
stops:008811155,Haren,50.888878,4.419978,,,1
stops:008811155:0,Haren,50.888878,4.419978,,stops:008811155,0
stops:008811155:1,Haren,50.888878,4.419978,1,stops:008811155,0
stops:008811155:2,Haren,50.888878,4.419978,2,stops:008811155,0
stops:008811163,Bordet,50.877785,4.410026,,,1
stops:008811163:0,Bordet,50.877785,4.410026,,stops:008811163,0
stops:008811163:1,Bordet,50.877785,4.410026,1,stops:008811163,0
stops:008811163:2,Bordet,50.877785,4.410026,2,stops:008811163,0
stops:008811171,Meiser,50.854072,4.394421,,,1
stops:008811171:0,Meiser,50.854072,4.394421,,stops:008811171,0
stops:008811171:1,Meiser,50.854072,4.394421,1,stops:008811171,0
stops:008811171:2,Meiser,50.854072,4.394421,2,stops:008811171,0
stops:008811189,Vilvoorde,50.924583,4.432823,,,1
stops:008811189:0,Vilvoorde,50.924583,4.432823,,stops:008811189,0
stops:008811189:1,Vilvoorde,50.924583,4.432823,1,stops:008811189,0
stops:008811189:2,Vilvoorde,50.924583,4.432823,2,stops:008811189,0
stops:008811189:3,Vilvoorde,50.924583,4.432823,3,stops:008811189,0
stops:008811189:4,Vilvoorde,50.924583,4.432823,4,stops:008811189,0
stops:008811197,Merode,50.839284,4.398934,,,1
stops:008811197:0,Merode,50.839284,4.398934,,stops:008811197,0
stops:008811197:1,Merode,50.839284,4.398934,1,stops:008811197,0
stops:008811197:2,Merode,50.839284,4.398934,2,stops:008811197,0
stops:008811205,Delta,50.818357,4.403869,,,1
stops:008811205:0,Delta,50.818357,4.403869,,stops:008811205,0
stops:008811205:1,Delta,50.818357,4.403869,1,stops:008811205,0
stops:008811205:2,Delta,50.818357,4.403869,2,stops:008811205,0
stops:008811213,Diegem,50.890478,4.442774,,,1
stops:008811213:0,Diegem,50.890478,4.442774,,stops:008811213,0
stops:008811213:1,Diegem,50.890478,4.442774,1,stops:008811213,0
stops:008811213:2,Diegem,50.890478,4.442774,2,stops:008811213,0
stops:008811213:3,Diegem,50.890478,4.442774,3,stops:008811213,0
stops:008811213:4,Diegem,50.890478,4.442774,4,stops:008811213,0
stops:008811221,Zaventem,50.885723,4.469886,,,1
stops:008811221:0,Zaventem,50.885723,4.469886,,stops:008811221,0
stops:008811221:1,Zaventem,50.885723,4.469886,1,stops:008811221,0
stops:008811221:2,Zaventem,50.885723,4.469886,2,stops:008811221,0
stops:008811221:3,Zaventem,50.885723,4.469886,3,stops:008811221,0
stops:008811221:4,Zaventem,50.885723,4.469886,4,stops:008811221,0
stops:008811247,Nossegem,50.883314,4.506112,,,1
stops:008811247:0,Nossegem,50.883314,4.506112,,stops:008811247,0
stops:008811247:1,Nossegem,50.883314,4.506112,1,stops:008811247,0
stops:008811247:2,Nossegem,50.883314,4.506112,2,stops:008811247,0
stops:008811247:3,Nossegem,50.883314,4.506112,3,stops:008811247,0
stops:008811247:4,Nossegem,50.883314,4.506112,4,stops:008811247,0
stops:008811254,Kortenberg,50.893067,4.543301,,,1
stops:008811254:0,Kortenberg,50.893067,4.543301,,stops:008811254,0
stops:008811254:1,Kortenberg,50.893067,4.543301,1,stops:008811254,0
stops:008811254:2,Kortenberg,50.893067,4.543301,2,stops:008811254,0
stops:008811254:3,Kortenberg,50.893067,4.543301,3,stops:008811254,0
stops:008811254:4,Kortenberg,50.893067,4.543301,4,stops:008811254,0
stops:008811262,Erps-Kwerps,50.89651,4.585001,,,1
stops:008811262:0,Erps-Kwerps,50.89651,4.585001,,stops:008811262,0
stops:008811262:1,Erps-Kwerps,50.89651,4.585001,1,stops:008811262,0
stops:008811262:2,Erps-Kwerps,50.89651,4.585001,2,stops:008811262,0
stops:008811262:3,Erps-Kwerps,50.89651,4.585001,3,stops:008811262,0
stops:008811262:4,Erps-Kwerps,50.89651,4.585001,4,stops:008811262,0
stops:008811270,Veltem,50.900519,4.633516,,,1
stops:008811270:0,Veltem,50.900519,4.633516,,stops:008811270,0
stops:008811270:1,Veltem,50.900519,4.633516,1,stops:008811270,0
stops:008811270:2,Veltem,50.900519,4.633516,2,stops:008811270,0
stops:008811270:3,Veltem,50.900519,4.633516,3,stops:008811270,0
stops:008811270:4,Veltem,50.900519,4.633516,4,stops:008811270,0
stops:008811288,Herent,50.90353,4.672188,,,1
stops:008811288:0,Herent,50.90353,4.672188,,stops:008811288,0
stops:008811288:1,Herent,50.90353,4.672188,1,stops:008811288,0
stops:008811288:2,Herent,50.90353,4.672188,2,stops:008811288,0
stops:008811288:3,Herent,50.90353,4.672188,3,stops:008811288,0
stops:008811288:4,Herent,50.90353,4.672188,4,stops:008811288,0
stops:008811304,Brussel-Luxemburg/Bruxelles-Luxembourg,50.838943,4.373674,,,1
stops:008811304:0,Brussel-Luxemburg/Bruxelles-Luxembourg,50.838943,4.373674,,stops:008811304,0
stops:008811304:1,Brussel-Luxemburg/Bruxelles-Luxembourg,50.838943,4.373674,1,stops:008811304,0
stops:008811304:2,Brussel-Luxemburg/Bruxelles-Luxembourg,50.838943,4.373674,2,stops:008811304,0
stops:008811304:3,Brussel-Luxemburg/Bruxelles-Luxembourg,50.838943,4.373674,3,stops:008811304,0
stops:008811304:4,Brussel-Luxemburg/Bruxelles-Luxembourg,50.838943,4.373674,4,stops:008811304,0
stops:008811304:5,Brussel-Luxemburg/Bruxelles-Luxembourg,50.838943,4.373674,5,stops:008811304,0
stops:008811304:6,Brussel-Luxemburg/Bruxelles-Luxembourg,50.838943,4.373674,6,stops:008811304,0
stops:008811411,Etterbeek,50.822187,4.389513,,,1
stops:008811411:0,Etterbeek,50.822187,4.389513,,stops:008811411,0
stops:008811411:1,Etterbeek,50.822187,4.389513,1,stops:008811411,0
stops:008811411:2,Etterbeek,50.822187,4.389513,2,stops:008811411,0
stops:008811411:3,Etterbeek,50.822187,4.389513,3,stops:008811411,0
stops:008811411:4,Etterbeek,50.822187,4.389513,4,stops:008811411,0
stops:008811429,Watermaal/Watermael,50.80917,4.399887,,,1
stops:008811429:0,Watermaal/Watermael,50.80917,4.399887,,stops:008811429,0
stops:008811429:1,Watermaal/Watermael,50.80917,4.399887,1,stops:008811429,0
stops:008811429:2,Watermaal/Watermael,50.80917,4.399887,2,stops:008811429,0
stops:008811429:3,Watermaal/Watermael,50.80917,4.399887,3,stops:008811429,0
stops:008811437,Bosvoorde/Boitsfort,50.794698,4.408112,,,1
stops:008811437:0,Bosvoorde/Boitsfort,50.794698,4.408112,,stops:008811437,0
stops:008811437:1,Bosvoorde/Boitsfort,50.794698,4.408112,1,stops:008811437,0
stops:008811437:2,Bosvoorde/Boitsfort,50.794698,4.408112,2,stops:008811437,0
stops:008811445,Groenendaal,50.766103,4.449489,,,1
stops:008811445:0,Groenendaal,50.766103,4.449489,,stops:008811445,0
stops:008811445:1,Groenendaal,50.766103,4.449489,1,stops:008811445,0
stops:008811445:2,Groenendaal,50.766103,4.449489,2,stops:008811445,0
stops:008811460,Hoeilaart,50.760161,4.467414,,,1
stops:008811460:0,Hoeilaart,50.760161,4.467414,,stops:008811460,0
stops:008811460:1,Hoeilaart,50.760161,4.467414,1,stops:008811460,0
stops:008811460:2,Hoeilaart,50.760161,4.467414,2,stops:008811460,0
stops:008811510,La Hulpe,50.737958,4.49706,,,1
stops:008811510:0,La Hulpe,50.737958,4.49706,,stops:008811510,0
stops:008811510:1,La Hulpe,50.737958,4.49706,1,stops:008811510,0
stops:008811510:2,La Hulpe,50.737958,4.49706,2,stops:008811510,0
stops:008811510:3,La Hulpe,50.737958,4.49706,3,stops:008811510,0
stops:008811528,Genval,50.725697,4.514832,,,1
stops:008811528:0,Genval,50.725697,4.514832,,stops:008811528,0
stops:008811528:1,Genval,50.725697,4.514832,1,stops:008811528,0
stops:008811528:2,Genval,50.725697,4.514832,2,stops:008811528,0
stops:008811528:3,Genval,50.725697,4.514832,3,stops:008811528,0
stops:008811536,Rixensart,50.711413,4.532855,,,1
stops:008811536:0,Rixensart,50.711413,4.532855,,stops:008811536,0
stops:008811536:1,Rixensart,50.711413,4.532855,1,stops:008811536,0
stops:008811536:2,Rixensart,50.711413,4.532855,2,stops:008811536,0
stops:008811544,Profondsart,50.693758,4.549153,,,1
stops:008811544:0,Profondsart,50.693758,4.549153,,stops:008811544,0
stops:008811544:1,Profondsart,50.693758,4.549153,1,stops:008811544,0
stops:008811544:2,Profondsart,50.693758,4.549153,2,stops:008811544,0
stops:008811601,Ottignies,50.673667,4.56936,,,1
stops:008811601:0,Ottignies,50.673667,4.56936,,stops:008811601,0
stops:008811601:1,Ottignies,50.673667,4.56936,1,stops:008811601,0
stops:008811601:2,Ottignies,50.673667,4.56936,2,stops:008811601,0
stops:008811601:3,Ottignies,50.673667,4.56936,3,stops:008811601,0
stops:008811601:4,Ottignies,50.673667,4.56936,4,stops:008811601,0
stops:008811601:5,Ottignies,50.673667,4.56936,5,stops:008811601,0
stops:008811601:6,Ottignies,50.673667,4.56936,6,stops:008811601,0
stops:008811601:7,Ottignies,50.673667,4.56936,7,stops:008811601,0
stops:008811601:8,Ottignies,50.673667,4.56936,8,stops:008811601,0
stops:008811601:9,Ottignies,50.673667,4.56936,9,stops:008811601,0
stops:008811601:10,Ottignies,50.673667,4.56936,10,stops:008811601,0
stops:008811601:11,Ottignies,50.673667,4.56936,11,stops:008811601,0
stops:008811635,Limal,50.69214,4.575302,,,1
stops:008811635:0,Limal,50.69214,4.575302,,stops:008811635,0
stops:008811635:1,Limal,50.69214,4.575302,1,stops:008811635,0
stops:008811635:2,Limal,50.69214,4.575302,2,stops:008811635,0
stops:008811676,Louvain-la-Neuve-Université,50.669793,4.615745,,,1
stops:008811676:0,Louvain-la-Neuve-Université,50.669793,4.615745,,stops:008811676,0
stops:008811676:1,Louvain-la-Neuve-Université,50.669793,4.615745,1,stops:008811676,0
stops:008811676:2,Louvain-la-Neuve-Université,50.669793,4.615745,2,stops:008811676,0
stops:008811676:3,Louvain-la-Neuve-Université,50.669793,4.615745,3,stops:008811676,0
stops:008811718,Bierges-Walibi,50.707772,4.594746,,,1
stops:008811718:0,Bierges-Walibi,50.707772,4.594746,,stops:008811718,0
stops:008811718:1,Bierges-Walibi,50.707772,4.594746,1,stops:008811718,0
stops:008811718:2,Bierges-Walibi,50.707772,4.594746,2,stops:008811718,0
stops:008811726,Wavre,50.716267,4.604778,,,1
stops:008811726:0,Wavre,50.716267,4.604778,,stops:008811726,0
stops:008811726:1,Wavre,50.716267,4.604778,1,stops:008811726,0
stops:008811726:2,Wavre,50.716267,4.604778,2,stops:008811726,0
stops:008811726:3,Wavre,50.716267,4.604778,3,stops:008811726,0
stops:008811734,Basse-Wavre,50.72442,4.621651,,,1
stops:008811734:0,Basse-Wavre,50.72442,4.621651,,stops:008811734,0
stops:008811734:1,Basse-Wavre,50.72442,4.621651,1,stops:008811734,0
stops:008811734:2,Basse-Wavre,50.72442,4.621651,2,stops:008811734,0
stops:008811742,Gastuche,50.736646,4.649598,,,1
stops:008811742:0,Gastuche,50.736646,4.649598,,stops:008811742,0
stops:008811742:1,Gastuche,50.736646,4.649598,1,stops:008811742,0
stops:008811742:2,Gastuche,50.736646,4.649598,2,stops:008811742,0
stops:008811759,Archennes,50.754345,4.662444,,,1
stops:008811759:0,Archennes,50.754345,4.662444,,stops:008811759,0
stops:008811759:1,Archennes,50.754345,4.662444,1,stops:008811759,0
stops:008811759:2,Archennes,50.754345,4.662444,2,stops:008811759,0
stops:008811767,Florival,50.761501,4.653868,,,1
stops:008811767:0,Florival,50.761501,4.653868,,stops:008811767,0
stops:008811767:1,Florival,50.761501,4.653868,1,stops:008811767,0
stops:008811767:2,Florival,50.761501,4.653868,2,stops:008811767,0
stops:008811775,Pécrot,50.778517,4.651486,,,1
stops:008811775:0,Pécrot,50.778517,4.651486,,stops:008811775,0
stops:008811775:1,Pécrot,50.778517,4.651486,1,stops:008811775,0
stops:008811775:2,Pécrot,50.778517,4.651486,2,stops:008811775,0
stops:008811817,Ceroux-Mousty,50.659941,4.569046,,,1
stops:008811817:0,Ceroux-Mousty,50.659941,4.569046,,stops:008811817,0
stops:008811817:1,Ceroux-Mousty,50.659941,4.569046,1,stops:008811817,0
stops:008811817:2,Ceroux-Mousty,50.659941,4.569046,2,stops:008811817,0
stops:008811825,Court-Saint-Étienne,50.645567,4.565819,,,1
stops:008811825:0,Court-Saint-Étienne,50.645567,4.565819,,stops:008811825,0
stops:008811825:1,Court-Saint-Étienne,50.645567,4.565819,1,stops:008811825,0
stops:008811825:2,Court-Saint-Étienne,50.645567,4.565819,2,stops:008811825,0
stops:008811916,Brussel-Schuman/Bruxelles-Schuman,50.843276,4.380722,,,1
stops:008811916:0,Brussel-Schuman/Bruxelles-Schuman,50.843276,4.380722,,stops:008811916,0
stops:008811916:1,Brussel-Schuman/Bruxelles-Schuman,50.843276,4.380722,1,stops:008811916,0
stops:008811916:2,Brussel-Schuman/Bruxelles-Schuman,50.843276,4.380722,2,stops:008811916,0
stops:008812005,Brussel-Noord/Bruxelles-Nord,50.859663,4.360846,,,1
stops:008812005:0,Brussel-Noord/Bruxelles-Nord,50.859663,4.360846,,stops:008812005,0
stops:008812005:1,Brussel-Noord/Bruxelles-Nord,50.859663,4.360846,1,stops:008812005,0
stops:008812005:2,Brussel-Noord/Bruxelles-Nord,50.859663,4.360846,2,stops:008812005,0
stops:008812005:3,Brussel-Noord/Bruxelles-Nord,50.859663,4.360846,3,stops:008812005,0
stops:008812005:4,Brussel-Noord/Bruxelles-Nord,50.859663,4.360846,4,stops:008812005,0
stops:008812005:5,Brussel-Noord/Bruxelles-Nord,50.859663,4.360846,5,stops:008812005,0
stops:008812005:6,Brussel-Noord/Bruxelles-Nord,50.859663,4.360846,6,stops:008812005,0
stops:008812005:7,Brussel-Noord/Bruxelles-Nord,50.859663,4.360846,7,stops:008812005,0
stops:008812005:8,Brussel-Noord/Bruxelles-Nord,50.859663,4.360846,8,stops:008812005,0
stops:008812005:9,Brussel-Noord/Bruxelles-Nord,50.859663,4.360846,9,stops:008812005,0
stops:008812005:10,Brussel-Noord/Bruxelles-Nord,50.859663,4.360846,10,stops:008812005,0
stops:008812005:11,Brussel-Noord/Bruxelles-Nord,50.859663,4.360846,11,stops:008812005,0
stops:008812005:12,Brussel-Noord/Bruxelles-Nord,50.859663,4.360846,12,stops:008812005,0
stops:008812013,Simonis,50.863645,4.32898,,,1
stops:008812013:0,Simonis,50.863645,4.32898,,stops:008812013,0
stops:008812013:1,Simonis,50.863645,4.32898,1,stops:008812013,0
stops:008812013:2,Simonis,50.863645,4.32898,2,stops:008812013,0
stops:008812021,Bockstael,50.87943,4.348513,,,1
stops:008812021:0,Bockstael,50.87943,4.348513,,stops:008812021,0
stops:008812021:1,Bockstael,50.87943,4.348513,1,stops:008812021,0
stops:008812021:2,Bockstael,50.87943,4.348513,2,stops:008812021,0
stops:008812047,Jette,50.880833,4.32622,,,1
stops:008812047:0,Jette,50.880833,4.32622,,stops:008812047,0
stops:008812047:1,Jette,50.880833,4.32622,1,stops:008812047,0
stops:008812047:2,Jette,50.880833,4.32622,2,stops:008812047,0
stops:008812047:3,Jette,50.880833,4.32622,3,stops:008812047,0
stops:008812047:4,Jette,50.880833,4.32622,4,stops:008812047,0
stops:008812062,Zellik,50.890028,4.274541,,,1
stops:008812062:0,Zellik,50.890028,4.274541,,stops:008812062,0
stops:008812062:1,Zellik,50.890028,4.274541,1,stops:008812062,0
stops:008812062:2,Zellik,50.890028,4.274541,2,stops:008812062,0
stops:008812070,Asse,50.906488,4.207985,,,1
stops:008812070:0,Asse,50.906488,4.207985,,stops:008812070,0
stops:008812070:1,Asse,50.906488,4.207985,1,stops:008812070,0
stops:008812070:2,Asse,50.906488,4.207985,2,stops:008812070,0
stops:008812112,Mollem,50.933473,4.216965,,,1
stops:008812112:0,Mollem,50.933473,4.216965,,stops:008812112,0
stops:008812112:1,Mollem,50.933473,4.216965,1,stops:008812112,0
stops:008812112:2,Mollem,50.933473,4.216965,2,stops:008812112,0
stops:008812120,Merchtem,50.954958,4.222718,,,1
stops:008812120:0,Merchtem,50.954958,4.222718,,stops:008812120,0
stops:008812120:1,Merchtem,50.954958,4.222718,1,stops:008812120,0
stops:008812120:2,Merchtem,50.954958,4.222718,2,stops:008812120,0
stops:008812146,Opwijk,50.974779,4.187319,,,1
stops:008812146:0,Opwijk,50.974779,4.187319,,stops:008812146,0
stops:008812146:1,Opwijk,50.974779,4.187319,1,stops:008812146,0
stops:008812146:2,Opwijk,50.974779,4.187319,2,stops:008812146,0
stops:008812153,Heizijde,50.989593,4.156171,,,1
stops:008812153:0,Heizijde,50.989593,4.156171,,stops:008812153,0
stops:008812153:1,Heizijde,50.989593,4.156171,1,stops:008812153,0
stops:008812153:2,Heizijde,50.989593,4.156171,2,stops:008812153,0
stops:008812161,Lebbeke,51.005009,4.134372,,,1
stops:008812161:0,Lebbeke,51.005009,4.134372,,stops:008812161,0
stops:008812161:1,Lebbeke,51.005009,4.134372,1,stops:008812161,0
stops:008812161:2,Lebbeke,51.005009,4.134372,2,stops:008812161,0
stops:008812211,Sint-Agatha-Berchem/Berchem-Sainte-Agathe,50.872625,4.289895,,,1
stops:008812211:0,Sint-Agatha-Berchem/Berchem-Sainte-Agathe,50.872625,4.289895,,stops:008812211,0
stops:008812211:1,Sint-Agatha-Berchem/Berchem-Sainte-Agathe,50.872625,4.289895,1,stops:008812211,0
stops:008812211:2,Sint-Agatha-Berchem/Berchem-Sainte-Agathe,50.872625,4.289895,2,stops:008812211,0
stops:008812229,Groot-Bijgaarden,50.868337,4.273543,,,1
stops:008812229:0,Groot-Bijgaarden,50.868337,4.273543,,stops:008812229,0
stops:008812229:1,Groot-Bijgaarden,50.868337,4.273543,1,stops:008812229,0
stops:008812229:2,Groot-Bijgaarden,50.868337,4.273543,2,stops:008812229,0
stops:008812237,Dilbeek,50.866728,4.243393,,,1
stops:008812237:0,Dilbeek,50.866728,4.243393,,stops:008812237,0
stops:008812237:1,Dilbeek,50.866728,4.243393,1,stops:008812237,0
stops:008812237:2,Dilbeek,50.866728,4.243393,2,stops:008812237,0
stops:008812245,Sint-Martens-Bodegem,50.86716,4.205081,,,1
stops:008812245:0,Sint-Martens-Bodegem,50.86716,4.205081,,stops:008812245,0
stops:008812245:1,Sint-Martens-Bodegem,50.86716,4.205081,1,stops:008812245,0
stops:008812245:2,Sint-Martens-Bodegem,50.86716,4.205081,2,stops:008812245,0
stops:008812252,Ternat,50.874522,4.16534,,,1
stops:008812252:0,Ternat,50.874522,4.16534,,stops:008812252,0
stops:008812252:1,Ternat,50.874522,4.16534,1,stops:008812252,0
stops:008812252:2,Ternat,50.874522,4.16534,2,stops:008812252,0
stops:008812260,Essene-Lombeek,50.882451,4.115171,,,1
stops:008812260:0,Essene-Lombeek,50.882451,4.115171,,stops:008812260,0
stops:008812260:1,Essene-Lombeek,50.882451,4.115171,1,stops:008812260,0
stops:008812260:2,Essene-Lombeek,50.882451,4.115171,2,stops:008812260,0
stops:008813003,Brussel-Centraal/Bruxelles-Central,50.845658,4.356801,,,1
stops:008813003:0,Brussel-Centraal/Bruxelles-Central,50.845658,4.356801,,stops:008813003,0
stops:008813003:1,Brussel-Centraal/Bruxelles-Central,50.845658,4.356801,1,stops:008813003,0
stops:008813003:2,Brussel-Centraal/Bruxelles-Central,50.845658,4.356801,2,stops:008813003,0
stops:008813003:3,Brussel-Centraal/Bruxelles-Central,50.845658,4.356801,3,stops:008813003,0
stops:008813003:4,Brussel-Centraal/Bruxelles-Central,50.845658,4.356801,4,stops:008813003,0
stops:008813003:5,Brussel-Centraal/Bruxelles-Central,50.845658,4.356801,5,stops:008813003,0
stops:008813003:6,Brussel-Centraal/Bruxelles-Central,50.845658,4.356801,6,stops:008813003,0
stops:008813037,Brussel-Kapellekerk/Bruxelles-Chapelle,50.841127,4.347866,,,1
stops:008813037:0,Brussel-Kapellekerk/Bruxelles-Chapelle,50.841127,4.347866,,stops:008813037,0
stops:008813037:1,Brussel-Kapellekerk/Bruxelles-Chapelle,50.841127,4.347866,1,stops:008813037,0
stops:008813037:2,Brussel-Kapellekerk/Bruxelles-Chapelle,50.841127,4.347866,2,stops:008813037,0
stops:008813037:3,Brussel-Kapellekerk/Bruxelles-Chapelle,50.841127,4.347866,3,stops:008813037,0
stops:008813037:4,Brussel-Kapellekerk/Bruxelles-Chapelle,50.841127,4.347866,4,stops:008813037,0
stops:008813037:5,Brussel-Kapellekerk/Bruxelles-Chapelle,50.841127,4.347866,5,stops:008813037,0
stops:008813037:6,Brussel-Kapellekerk/Bruxelles-Chapelle,50.841127,4.347866,6,stops:008813037,0
stops:008813045,Brussel-Congres/Bruxelles-Congrès,50.852067,4.362051,,,1
stops:008813045:0,Brussel-Congres/Bruxelles-Congrès,50.852067,4.362051,,stops:008813045,0
stops:008813045:1,Brussel-Congres/Bruxelles-Congrès,50.852067,4.362051,1,stops:008813045,0
stops:008813045:2,Brussel-Congres/Bruxelles-Congrès,50.852067,4.362051,2,stops:008813045,0
stops:008813045:3,Brussel-Congres/Bruxelles-Congrès,50.852067,4.362051,3,stops:008813045,0
stops:008813045:4,Brussel-Congres/Bruxelles-Congrès,50.852067,4.362051,4,stops:008813045,0
stops:008813045:5,Brussel-Congres/Bruxelles-Congrès,50.852067,4.362051,5,stops:008813045,0
stops:008813045:6,Brussel-Congres/Bruxelles-Congrès,50.852067,4.362051,6,stops:008813045,0
stops:008814001,Brussel-Zuid/Bruxelles-Midi,50.835707,4.336531,,,1
stops:008814001:0,Brussel-Zuid/Bruxelles-Midi,50.835707,4.336531,,stops:008814001,0
stops:008814001:1,Brussel-Zuid/Bruxelles-Midi,50.835707,4.336531,1,stops:008814001,0
stops:008814001:2,Brussel-Zuid/Bruxelles-Midi,50.835707,4.336531,2,stops:008814001,0
stops:008814001:3,Brussel-Zuid/Bruxelles-Midi,50.835707,4.336531,3,stops:008814001,0
stops:008814001:4,Brussel-Zuid/Bruxelles-Midi,50.835707,4.336531,4,stops:008814001,0
stops:008814001:5,Brussel-Zuid/Bruxelles-Midi,50.835707,4.336531,5,stops:008814001,0
stops:008814001:6,Brussel-Zuid/Bruxelles-Midi,50.835707,4.336531,6,stops:008814001,0
stops:008814001:7,Brussel-Zuid/Bruxelles-Midi,50.835707,4.336531,7,stops:008814001,0
stops:008814001:8,Brussel-Zuid/Bruxelles-Midi,50.835707,4.336531,8,stops:008814001,0
stops:008814001:9,Brussel-Zuid/Bruxelles-Midi,50.835707,4.336531,9,stops:008814001,0
stops:008814001:10,Brussel-Zuid/Bruxelles-Midi,50.835707,4.336531,10,stops:008814001,0
stops:008814001:11,Brussel-Zuid/Bruxelles-Midi,50.835707,4.336531,11,stops:008814001,0
stops:008814001:12,Brussel-Zuid/Bruxelles-Midi,50.835707,4.336531,12,stops:008814001,0
stops:008814001:13,Brussel-Zuid/Bruxelles-Midi,50.835707,4.336531,13,stops:008814001,0
stops:008814001:14,Brussel-Zuid/Bruxelles-Midi,50.835707,4.336531,14,stops:008814001,0
stops:008814001:15,Brussel-Zuid/Bruxelles-Midi,50.835707,4.336531,15,stops:008814001,0
stops:008814001:16,Brussel-Zuid/Bruxelles-Midi,50.835707,4.336531,16,stops:008814001,0
stops:008814001:17,Brussel-Zuid/Bruxelles-Midi,50.835707,4.336531,17,stops:008814001,0
stops:008814001:18,Brussel-Zuid/Bruxelles-Midi,50.835707,4.336531,18,stops:008814001,0
stops:008814001:19,Brussel-Zuid/Bruxelles-Midi,50.835707,4.336531,19,stops:008814001,0
stops:008814001:20,Brussel-Zuid/Bruxelles-Midi,50.835707,4.336531,20,stops:008814001,0
stops:008814001:21,Brussel-Zuid/Bruxelles-Midi,50.835707,4.336531,21,stops:008814001,0
stops:008814118,Vorst-Oost/Forest-Est,50.810195,4.320943,,,1
stops:008814118:0,Vorst-Oost/Forest-Est,50.810195,4.320943,,stops:008814118,0
stops:008814118:1,Vorst-Oost/Forest-Est,50.810195,4.320943,1,stops:008814118,0
stops:008814118:2,Vorst-Oost/Forest-Est,50.810195,4.320943,2,stops:008814118,0
stops:008814126,Ukkel-Stalle/Uccle-Stalle,50.802411,4.323901,,,1
stops:008814126:0,Ukkel-Stalle/Uccle-Stalle,50.802411,4.323901,,stops:008814126,0
stops:008814126:1,Ukkel-Stalle/Uccle-Stalle,50.802411,4.323901,1,stops:008814126,0
stops:008814126:2,Ukkel-Stalle/Uccle-Stalle,50.802411,4.323901,2,stops:008814126,0
stops:008814134,Ukkel-Kalevoet/Uccle-Calevoet,50.791749,4.332207,,,1
stops:008814134:0,Ukkel-Kalevoet/Uccle-Calevoet,50.791749,4.332207,,stops:008814134,0
stops:008814134:1,Ukkel-Kalevoet/Uccle-Calevoet,50.791749,4.332207,1,stops:008814134,0
stops:008814134:2,Ukkel-Kalevoet/Uccle-Calevoet,50.791749,4.332207,2,stops:008814134,0
stops:008814142,Linkebeek,50.773681,4.339434,,,1
stops:008814142:0,Linkebeek,50.773681,4.339434,,stops:008814142,0
stops:008814142:1,Linkebeek,50.773681,4.339434,1,stops:008814142,0
stops:008814142:2,Linkebeek,50.773681,4.339434,2,stops:008814142,0
stops:008814159,Holleken,50.767631,4.353952,,,1
stops:008814159:0,Holleken,50.767631,4.353952,,stops:008814159,0
stops:008814159:1,Holleken,50.767631,4.353952,1,stops:008814159,0
stops:008814159:2,Holleken,50.767631,4.353952,2,stops:008814159,0
stops:008814167,Sint-Genesius-Rode,50.74781,4.361997,,,1
stops:008814167:0,Sint-Genesius-Rode,50.74781,4.361997,,stops:008814167,0
stops:008814167:1,Sint-Genesius-Rode,50.74781,4.361997,1,stops:008814167,0
stops:008814167:2,Sint-Genesius-Rode,50.74781,4.361997,2,stops:008814167,0
stops:008814175,De Hoek,50.738812,4.370717,,,1
stops:008814175:0,De Hoek,50.738812,4.370717,,stops:008814175,0
stops:008814175:1,De Hoek,50.738812,4.370717,1,stops:008814175,0
stops:008814175:2,De Hoek,50.738812,4.370717,2,stops:008814175,0
stops:008814209,Nivelles,50.599641,4.335065,,,1
stops:008814209:0,Nivelles,50.599641,4.335065,,stops:008814209,0
stops:008814209:1,Nivelles,50.599641,4.335065,1,stops:008814209,0
stops:008814209:2,Nivelles,50.599641,4.335065,2,stops:008814209,0
stops:008814209:3,Nivelles,50.599641,4.335065,3,stops:008814209,0
stops:008814209:A,Nivelles,50.599641,4.335065,A,stops:008814209,0
stops:008814209:B,Nivelles,50.599641,4.335065,B,stops:008814209,0
stops:008814209:C,Nivelles,50.599641,4.335065,C,stops:008814209,0
stops:008814241,Lillois,50.645423,4.365368,,,1
stops:008814241:0,Lillois,50.645423,4.365368,,stops:008814241,0
stops:008814241:1,Lillois,50.645423,4.365368,1,stops:008814241,0
stops:008814241:2,Lillois,50.645423,4.365368,2,stops:008814241,0
stops:008814258,Braine-l'Alleud,50.684778,4.375526,,,1
stops:008814258:0,Braine-l'Alleud,50.684778,4.375526,,stops:008814258,0
stops:008814258:1,Braine-l'Alleud,50.684778,4.375526,1,stops:008814258,0
stops:008814258:2,Braine-l'Alleud,50.684778,4.375526,2,stops:008814258,0
stops:008814266,Waterloo,50.715422,4.383481,,,1
stops:008814266:0,Waterloo,50.715422,4.383481,,stops:008814266,0
stops:008814266:1,Waterloo,50.715422,4.383481,1,stops:008814266,0
stops:008814266:2,Waterloo,50.715422,4.383481,2,stops:008814266,0
stops:008814308,Halle,50.733931,4.240634,,,1
stops:008814308:0,Halle,50.733931,4.240634,,stops:008814308,0
stops:008814308:1,Halle,50.733931,4.240634,1,stops:008814308,0
stops:008814308:2,Halle,50.733931,4.240634,2,stops:008814308,0
stops:008814308:3,Halle,50.733931,4.240634,3,stops:008814308,0
stops:008814308:4,Halle,50.733931,4.240634,4,stops:008814308,0
stops:008814308:5,Halle,50.733931,4.240634,5,stops:008814308,0
stops:008814332,Lembeek,50.715107,4.221577,,,1
stops:008814332:0,Lembeek,50.715107,4.221577,,stops:008814332,0
stops:008814332:1,Lembeek,50.715107,4.221577,1,stops:008814332,0
stops:008814332:2,Lembeek,50.715107,4.221577,2,stops:008814332,0
stops:008814340,Buizingen,50.751577,4.258558,,,1
stops:008814340:0,Buizingen,50.751577,4.258558,,stops:008814340,0
stops:008814340:1,Buizingen,50.751577,4.258558,1,stops:008814340,0
stops:008814340:2,Buizingen,50.751577,4.258558,2,stops:008814340,0
stops:008814357,Lot,50.766364,4.273696,,,1
stops:008814357:0,Lot,50.766364,4.273696,,stops:008814357,0
stops:008814357:1,Lot,50.766364,4.273696,1,stops:008814357,0
stops:008814357:2,Lot,50.766364,4.273696,2,stops:008814357,0
stops:008814365,Ruisbroek,50.79183,4.295333,,,1
stops:008814365:0,Ruisbroek,50.79183,4.295333,,stops:008814365,0
stops:008814365:1,Ruisbroek,50.79183,4.295333,1,stops:008814365,0
stops:008814365:2,Ruisbroek,50.79183,4.295333,2,stops:008814365,0
stops:008814373,Vorst-Zuid/Forest-Midi,50.809215,4.309167,,,1
stops:008814373:0,Vorst-Zuid/Forest-Midi,50.809215,4.309167,,stops:008814373,0
stops:008814373:1,Vorst-Zuid/Forest-Midi,50.809215,4.309167,1,stops:008814373,0
stops:008814373:2,Vorst-Zuid/Forest-Midi,50.809215,4.309167,2,stops:008814373,0
stops:008814415,Huizingen,50.7519,4.266487,,,1
stops:008814415:0,Huizingen,50.7519,4.266487,,stops:008814415,0
stops:008814415:1,Huizingen,50.7519,4.266487,1,stops:008814415,0
stops:008814415:2,Huizingen,50.7519,4.266487,2,stops:008814415,0
stops:008814423,Beersel,50.766616,4.302605,,,1
stops:008814423:0,Beersel,50.766616,4.302605,,stops:008814423,0
stops:008814423:1,Beersel,50.766616,4.302605,1,stops:008814423,0
stops:008814423:2,Beersel,50.766616,4.302605,2,stops:008814423,0
stops:008814431,Moensberg,50.77832,4.330733,,,1
stops:008814431:0,Moensberg,50.77832,4.330733,,stops:008814431,0
stops:008814431:1,Moensberg,50.77832,4.330733,1,stops:008814431,0
stops:008814431:2,Moensberg,50.77832,4.330733,2,stops:008814431,0
stops:008814449,Sint-Job,50.79441,4.362761,,,1
stops:008814449:0,Sint-Job,50.79441,4.362761,,stops:008814449,0
stops:008814449:1,Sint-Job,50.79441,4.362761,1,stops:008814449,0
stops:008814449:2,Sint-Job,50.79441,4.362761,2,stops:008814449,0
stops:008814456,Boondaal/Boondael,50.801665,4.393387,,,1
stops:008814456:0,Boondaal/Boondael,50.801665,4.393387,,stops:008814456,0
stops:008814456:1,Boondaal/Boondael,50.801665,4.393387,1,stops:008814456,0
stops:008814456:2,Boondaal/Boondael,50.801665,4.393387,2,stops:008814456,0
stops:008814464,Diesdelle/Vivier d'Oie,50.796145,4.374052,,,1
stops:008814464:0,Diesdelle/Vivier d'Oie,50.796145,4.374052,,stops:008814464,0
stops:008814464:1,Diesdelle/Vivier d'Oie,50.796145,4.374052,1,stops:008814464,0
stops:008814464:2,Diesdelle/Vivier d'Oie,50.796145,4.374052,2,stops:008814464,0
stops:008815040,Brussel-West/Bruxelles-Ouest,50.848552,4.321042,,,1
stops:008815040:0,Brussel-West/Bruxelles-Ouest,50.848552,4.321042,,stops:008815040,0
stops:008815040:1,Brussel-West/Bruxelles-Ouest,50.848552,4.321042,1,stops:008815040,0
stops:008815040:2,Brussel-West/Bruxelles-Ouest,50.848552,4.321042,2,stops:008815040,0
stops:008819406,Brussel-Nat-Luchthaven/Bruxelles-Nat-Aéroport,50.896456,4.482075,,,1
stops:008819406:0,Brussel-Nat-Luchthaven/Bruxelles-Nat-Aéroport,50.896456,4.482075,,stops:008819406,0
stops:008819406:1,Brussel-Nat-Luchthaven/Bruxelles-Nat-Aéroport,50.896456,4.482075,1,stops:008819406,0
stops:008819406:2,Brussel-Nat-Luchthaven/Bruxelles-Nat-Aéroport,50.896456,4.482075,2,stops:008819406,0
stops:008819406:3,Brussel-Nat-Luchthaven/Bruxelles-Nat-Aéroport,50.896456,4.482075,3,stops:008819406,0
stops:008821006,Antwerpen-Centraal,51.2172,4.421101,,,1
stops:008821006:0,Antwerpen-Centraal,51.2172,4.421101,,stops:008821006,0
stops:008821006:1,Antwerpen-Centraal,51.2172,4.421101,1,stops:008821006,0
stops:008821006:2,Antwerpen-Centraal,51.2172,4.421101,2,stops:008821006,0
stops:008821006:3,Antwerpen-Centraal,51.2172,4.421101,3,stops:008821006,0
stops:008821006:4,Antwerpen-Centraal,51.2172,4.421101,4,stops:008821006,0
stops:008821006:5,Antwerpen-Centraal,51.2172,4.421101,5,stops:008821006,0
stops:008821006:6,Antwerpen-Centraal,51.2172,4.421101,6,stops:008821006,0
stops:008821006:7,Antwerpen-Centraal,51.2172,4.421101,7,stops:008821006,0
stops:008821006:8,Antwerpen-Centraal,51.2172,4.421101,8,stops:008821006,0
stops:008821006:9,Antwerpen-Centraal,51.2172,4.421101,9,stops:008821006,0
stops:008821006:10,Antwerpen-Centraal,51.2172,4.421101,10,stops:008821006,0
stops:008821006:11,Antwerpen-Centraal,51.2172,4.421101,11,stops:008821006,0
stops:008821006:12,Antwerpen-Centraal,51.2172,4.421101,12,stops:008821006,0
stops:008821006:13,Antwerpen-Centraal,51.2172,4.421101,13,stops:008821006,0
stops:008821006:14,Antwerpen-Centraal,51.2172,4.421101,14,stops:008821006,0
stops:008821006:15,Antwerpen-Centraal,51.2172,4.421101,15,stops:008821006,0
stops:008821006:16,Antwerpen-Centraal,51.2172,4.421101,16,stops:008821006,0
stops:008821006:17,Antwerpen-Centraal,51.2172,4.421101,17,stops:008821006,0
stops:008821006:18,Antwerpen-Centraal,51.2172,4.421101,18,stops:008821006,0
stops:008821006:19,Antwerpen-Centraal,51.2172,4.421101,19,stops:008821006,0
stops:008821006:20,Antwerpen-Centraal,51.2172,4.421101,20,stops:008821006,0
stops:008821006:21,Antwerpen-Centraal,51.2172,4.421101,21,stops:008821006,0
stops:008821006:22,Antwerpen-Centraal,51.2172,4.421101,22,stops:008821006,0
stops:008821006:23,Antwerpen-Centraal,51.2172,4.421101,23,stops:008821006,0
stops:008821006:24,Antwerpen-Centraal,51.2172,4.421101,24,stops:008821006,0
stops:008821022,Antwerpen-Oost,51.207357,4.436392,,,1
stops:008821022:0,Antwerpen-Oost,51.207357,4.436392,,stops:008821022,0
stops:008821048,Antwerpen-Haven,51.289968,4.379086,,,1
stops:008821048:0,Antwerpen-Haven,51.289968,4.379086,,stops:008821048,0
stops:008821063,Antwerpen-Luchtbal,51.244132,4.425029,,,1
stops:008821063:0,Antwerpen-Luchtbal,51.244132,4.425029,,stops:008821063,0
stops:008821063:1,Antwerpen-Luchtbal,51.244132,4.425029,1,stops:008821063,0
stops:008821063:2,Antwerpen-Luchtbal,51.244132,4.425029,2,stops:008821063,0
stops:008821071,Ekeren,51.281626,4.434154,,,1
stops:008821071:0,Ekeren,51.281626,4.434154,,stops:008821071,0
stops:008821071:1,Ekeren,51.281626,4.434154,1,stops:008821071,0
stops:008821071:2,Ekeren,51.281626,4.434154,2,stops:008821071,0
stops:008821089,Antwerpen-Noorderdokken,51.261643,4.427906,,,1
stops:008821089:0,Antwerpen-Noorderdokken,51.261643,4.427906,,stops:008821089,0
stops:008821089:1,Antwerpen-Noorderdokken,51.261643,4.427906,1,stops:008821089,0
stops:008821089:2,Antwerpen-Noorderdokken,51.261643,4.427906,2,stops:008821089,0
stops:008821105,Noorderkempen,51.356838,4.632204,,,1
stops:008821105:0,Noorderkempen,51.356838,4.632204,,stops:008821105,0
stops:008821105:1,Noorderkempen,51.356838,4.632204,1,stops:008821105,0
stops:008821121,Antwerpen-Berchem,51.19923,4.432221,,,1
stops:008821121:0,Antwerpen-Berchem,51.19923,4.432221,,stops:008821121,0
stops:008821121:1,Antwerpen-Berchem,51.19923,4.432221,1,stops:008821121,0
stops:008821121:2,Antwerpen-Berchem,51.19923,4.432221,2,stops:008821121,0
stops:008821121:3,Antwerpen-Berchem,51.19923,4.432221,3,stops:008821121,0
stops:008821121:4,Antwerpen-Berchem,51.19923,4.432221,4,stops:008821121,0
stops:008821121:5,Antwerpen-Berchem,51.19923,4.432221,5,stops:008821121,0
stops:008821121:6,Antwerpen-Berchem,51.19923,4.432221,6,stops:008821121,0
stops:008821121:7,Antwerpen-Berchem,51.19923,4.432221,7,stops:008821121,0
stops:008821121:8,Antwerpen-Berchem,51.19923,4.432221,8,stops:008821121,0
stops:008821121:9,Antwerpen-Berchem,51.19923,4.432221,9,stops:008821121,0
stops:008821121:10,Antwerpen-Berchem,51.19923,4.432221,10,stops:008821121,0
stops:008821147,Mortsel,51.18296,4.448437,,,1
stops:008821147:0,Mortsel,51.18296,4.448437,,stops:008821147,0
stops:008821147:1,Mortsel,51.18296,4.448437,1,stops:008821147,0
stops:008821147:2,Mortsel,51.18296,4.448437,2,stops:008821147,0
stops:008821154,Mortsel-Deurnesteenweg,51.183023,4.446514,,,1
stops:008821154:0,Mortsel-Deurnesteenweg,51.183023,4.446514,,stops:008821154,0
stops:008821154:1,Mortsel-Deurnesteenweg,51.183023,4.446514,1,stops:008821154,0
stops:008821154:2,Mortsel-Deurnesteenweg,51.183023,4.446514,2,stops:008821154,0
stops:008821196,Antwerpen-Zuid,51.197828,4.390259,,,1
stops:008821196:0,Antwerpen-Zuid,51.197828,4.390259,,stops:008821196,0
stops:008821196:1,Antwerpen-Zuid,51.197828,4.390259,1,stops:008821196,0
stops:008821196:2,Antwerpen-Zuid,51.197828,4.390259,2,stops:008821196,0
stops:008821196:3,Antwerpen-Zuid,51.197828,4.390259,3,stops:008821196,0
stops:008821196:4,Antwerpen-Zuid,51.197828,4.390259,4,stops:008821196,0
stops:008821238,Mortsel-Oude God,51.171256,4.455737,,,1
stops:008821238:0,Mortsel-Oude God,51.171256,4.455737,,stops:008821238,0
stops:008821238:1,Mortsel-Oude God,51.171256,4.455737,1,stops:008821238,0
stops:008821238:2,Mortsel-Oude God,51.171256,4.455737,2,stops:008821238,0
stops:008821246,Mortsel-Liersesteenweg,51.169027,4.468843,,,1
stops:008821246:0,Mortsel-Liersesteenweg,51.169027,4.468843,,stops:008821246,0
stops:008821246:1,Mortsel-Liersesteenweg,51.169027,4.468843,1,stops:008821246,0
stops:008821246:2,Mortsel-Liersesteenweg,51.169027,4.468843,2,stops:008821246,0
stops:008821311,Kontich,51.134023,4.476358,,,1
stops:008821311:0,Kontich,51.134023,4.476358,,stops:008821311,0
stops:008821311:1,Kontich,51.134023,4.476358,1,stops:008821311,0
stops:008821311:2,Kontich,51.134023,4.476358,2,stops:008821311,0
stops:008821311:3,Kontich,51.134023,4.476358,3,stops:008821311,0
stops:008821311:4,Kontich,51.134023,4.476358,4,stops:008821311,0
stops:008821337,Hove,51.154114,4.465157,,,1
stops:008821337:0,Hove,51.154114,4.465157,,stops:008821337,0
stops:008821337:1,Hove,51.154114,4.465157,1,stops:008821337,0
stops:008821337:2,Hove,51.154114,4.465157,2,stops:008821337,0
stops:008821402,Essen,51.462767,4.451314,,,1
stops:008821402:0,Essen,51.462767,4.451314,,stops:008821402,0
stops:008821402:1,Essen,51.462767,4.451314,1,stops:008821402,0
stops:008821402:2,Essen,51.462767,4.451314,2,stops:008821402,0
stops:008821402:3,Essen,51.462767,4.451314,3,stops:008821402,0
stops:008821436,Wildert,51.428087,4.46335,,,1
stops:008821436:0,Wildert,51.428087,4.46335,,stops:008821436,0
stops:008821436:1,Wildert,51.428087,4.46335,1,stops:008821436,0
stops:008821436:2,Wildert,51.428087,4.46335,2,stops:008821436,0
stops:008821444,Kalmthout,51.391177,4.46682,,,1
stops:008821444:0,Kalmthout,51.391177,4.46682,,stops:008821444,0
stops:008821444:1,Kalmthout,51.391177,4.46682,1,stops:008821444,0
stops:008821444:2,Kalmthout,51.391177,4.46682,2,stops:008821444,0
stops:008821451,Kijkuit,51.378664,4.467315,,,1
stops:008821451:0,Kijkuit,51.378664,4.467315,,stops:008821451,0
stops:008821451:1,Kijkuit,51.378664,4.467315,1,stops:008821451,0
stops:008821451:2,Kijkuit,51.378664,4.467315,2,stops:008821451,0
stops:008821519,Heide,51.364623,4.460483,,,1
stops:008821519:0,Heide,51.364623,4.460483,,stops:008821519,0
stops:008821519:1,Heide,51.364623,4.460483,1,stops:008821519,0
stops:008821519:2,Heide,51.364623,4.460483,2,stops:008821519,0
stops:008821535,Kapellen,51.313528,4.432661,,,1
stops:008821535:0,Kapellen,51.313528,4.432661,,stops:008821535,0
stops:008821535:1,Kapellen,51.313528,4.432661,1,stops:008821535,0
stops:008821535:2,Kapellen,51.313528,4.432661,2,stops:008821535,0
stops:008821543,Sint-Mariaburg,51.291658,4.4349,,,1
stops:008821543:0,Sint-Mariaburg,51.291658,4.4349,,stops:008821543,0
stops:008821543:1,Sint-Mariaburg,51.291658,4.4349,1,stops:008821543,0
stops:008821543:2,Sint-Mariaburg,51.291658,4.4349,2,stops:008821543,0
stops:008821600,Lier,51.135758,4.560614,,,1
stops:008821600:0,Lier,51.135758,4.560614,,stops:008821600,0
stops:008821600:1,Lier,51.135758,4.560614,1,stops:008821600,0
stops:008821600:2,Lier,51.135758,4.560614,2,stops:008821600,0
stops:008821600:3,Lier,51.135758,4.560614,3,stops:008821600,0
stops:008821600:4,Lier,51.135758,4.560614,4,stops:008821600,0
stops:008821634,Boechout,51.16348,4.494489,,,1
stops:008821634:0,Boechout,51.16348,4.494489,,stops:008821634,0
stops:008821634:1,Boechout,51.16348,4.494489,1,stops:008821634,0
stops:008821634:2,Boechout,51.16348,4.494489,2,stops:008821634,0
stops:008821659,Kessel,51.151057,4.618459,,,1
stops:008821659:0,Kessel,51.151057,4.618459,,stops:008821659,0
stops:008821659:1,Kessel,51.151057,4.618459,1,stops:008821659,0
stops:008821659:2,Kessel,51.151057,4.618459,2,stops:008821659,0
stops:008821667,Nijlen,51.15984,4.666588,,,1
stops:008821667:0,Nijlen,51.15984,4.666588,,stops:008821667,0
stops:008821667:1,Nijlen,51.15984,4.666588,1,stops:008821667,0
stops:008821667:2,Nijlen,51.15984,4.666588,2,stops:008821667,0
stops:008821709,Wolfstee,51.168361,4.786144,,,1
stops:008821709:0,Wolfstee,51.168361,4.786144,,stops:008821709,0
stops:008821709:1,Wolfstee,51.168361,4.786144,1,stops:008821709,0
stops:008821709:2,Wolfstee,51.168361,4.786144,2,stops:008821709,0
stops:008821717,Herentals,51.181513,4.829535,,,1
stops:008821717:0,Herentals,51.181513,4.829535,,stops:008821717,0
stops:008821717:1,Herentals,51.181513,4.829535,1,stops:008821717,0
stops:008821717:2,Herentals,51.181513,4.829535,2,stops:008821717,0
stops:008821717:3,Herentals,51.181513,4.829535,3,stops:008821717,0
stops:008821717:4,Herentals,51.181513,4.829535,4,stops:008821717,0
stops:008821717:5,Herentals,51.181513,4.829535,5,stops:008821717,0
stops:008821725,Bouwel,51.165764,4.746511,,,1
stops:008821725:0,Bouwel,51.165764,4.746511,,stops:008821725,0
stops:008821725:1,Bouwel,51.165764,4.746511,1,stops:008821725,0
stops:008821725:2,Bouwel,51.165764,4.746511,2,stops:008821725,0
stops:008821816,Berlaar,51.113662,4.638811,,,1
stops:008821816:0,Berlaar,51.113662,4.638811,,stops:008821816,0
stops:008821816:1,Berlaar,51.113662,4.638811,1,stops:008821816,0
stops:008821816:2,Berlaar,51.113662,4.638811,2,stops:008821816,0
stops:008821824,Melkouwen,51.094938,4.671532,,,1
stops:008821824:0,Melkouwen,51.094938,4.671532,,stops:008821824,0
stops:008821824:1,Melkouwen,51.094938,4.671532,1,stops:008821824,0
stops:008821824:2,Melkouwen,51.094938,4.671532,2,stops:008821824,0
stops:008821832,Heist-op-den-Berg,51.074146,4.708235,,,1
stops:008821832:0,Heist-op-den-Berg,51.074146,4.708235,,stops:008821832,0
stops:008821832:1,Heist-op-den-Berg,51.074146,4.708235,1,stops:008821832,0
stops:008821832:2,Heist-op-den-Berg,51.074146,4.708235,2,stops:008821832,0
stops:008821857,Booischot,51.037344,4.773478,,,1
stops:008821857:0,Booischot,51.037344,4.773478,,stops:008821857,0
stops:008821857:1,Booischot,51.037344,4.773478,1,stops:008821857,0
stops:008821857:2,Booischot,51.037344,4.773478,2,stops:008821857,0
stops:008821865,Begijnendijk,51.021972,4.800338,,,1
stops:008821865:0,Begijnendijk,51.021972,4.800338,,stops:008821865,0
stops:008821865:1,Begijnendijk,51.021972,4.800338,1,stops:008821865,0
stops:008821865:2,Begijnendijk,51.021972,4.800338,2,stops:008821865,0
stops:008821907,Turnhout,51.322032,4.937415,,,1
stops:008821907:0,Turnhout,51.322032,4.937415,,stops:008821907,0
stops:008821907:1,Turnhout,51.322032,4.937415,1,stops:008821907,0
stops:008821907:2,Turnhout,51.322032,4.937415,2,stops:008821907,0
stops:008821964,Tielen,51.241021,4.893089,,,1
stops:008821964:0,Tielen,51.241021,4.893089,,stops:008821964,0
stops:008821964:1,Tielen,51.241021,4.893089,1,stops:008821964,0
stops:008821964:2,Tielen,51.241021,4.893089,2,stops:008821964,0
stops:008822004,Mechelen,51.017648,4.482785,,,1
stops:008822004:0,Mechelen,51.017648,4.482785,,stops:008822004,0
stops:008822004:1,Mechelen,51.017648,4.482785,1,stops:008822004,0
stops:008822004:2,Mechelen,51.017648,4.482785,2,stops:008822004,0
stops:008822004:3,Mechelen,51.017648,4.482785,3,stops:008822004,0
stops:008822004:4,Mechelen,51.017648,4.482785,4,stops:008822004,0
stops:008822004:5,Mechelen,51.017648,4.482785,5,stops:008822004,0
stops:008822004:6,Mechelen,51.017648,4.482785,6,stops:008822004,0
stops:008822004:7,Mechelen,51.017648,4.482785,7,stops:008822004,0
stops:008822004:8,Mechelen,51.017648,4.482785,8,stops:008822004,0
stops:008822004:9,Mechelen,51.017648,4.482785,9,stops:008822004,0
stops:008822004:10,Mechelen,51.017648,4.482785,10,stops:008822004,0
stops:008822053,Kapelle-op-den-Bos,51.010843,4.359121,,,1
stops:008822053:0,Kapelle-op-den-Bos,51.010843,4.359121,,stops:008822053,0
stops:008822053:1,Kapelle-op-den-Bos,51.010843,4.359121,1,stops:008822053,0
stops:008822053:2,Kapelle-op-den-Bos,51.010843,4.359121,2,stops:008822053,0
stops:008822111,Londerzeel,51.009091,4.299073,,,1
stops:008822111:0,Londerzeel,51.009091,4.299073,,stops:008822111,0
stops:008822111:1,Londerzeel,51.009091,4.299073,1,stops:008822111,0
stops:008822111:2,Londerzeel,51.009091,4.299073,2,stops:008822111,0
stops:008822137,Malderen,51.014484,4.22911,,,1
stops:008822137:0,Malderen,51.014484,4.22911,,stops:008822137,0
stops:008822137:1,Malderen,51.014484,4.22911,1,stops:008822137,0
stops:008822137:2,Malderen,51.014484,4.22911,2,stops:008822137,0
stops:008822145,Buggenhout,51.016291,4.201666,,,1
stops:008822145:0,Buggenhout,51.016291,4.201666,,stops:008822145,0
stops:008822145:1,Buggenhout,51.016291,4.201666,1,stops:008822145,0
stops:008822145:2,Buggenhout,51.016291,4.201666,2,stops:008822145,0
stops:008822160,Baasrode-Zuid,51.019437,4.153492,,,1
stops:008822160:0,Baasrode-Zuid,51.019437,4.153492,,stops:008822160,0
stops:008822160:1,Baasrode-Zuid,51.019437,4.153492,1,stops:008822160,0
stops:008822160:2,Baasrode-Zuid,51.019437,4.153492,2,stops:008822160,0
stops:008822210,Duffel,51.091243,4.493186,,,1
stops:008822210:0,Duffel,51.091243,4.493186,,stops:008822210,0
stops:008822210:1,Duffel,51.091243,4.493186,1,stops:008822210,0
stops:008822210:2,Duffel,51.091243,4.493186,2,stops:008822210,0
stops:008822210:3,Duffel,51.091243,4.493186,3,stops:008822210,0
stops:008822210:4,Duffel,51.091243,4.493186,4,stops:008822210,0
stops:008822228,Sint-Katelijne-Waver,51.069975,4.496116,,,1
stops:008822228:0,Sint-Katelijne-Waver,51.069975,4.496116,,stops:008822228,0
stops:008822228:1,Sint-Katelijne-Waver,51.069975,4.496116,1,stops:008822228,0
stops:008822228:2,Sint-Katelijne-Waver,51.069975,4.496116,2,stops:008822228,0
stops:008822228:3,Sint-Katelijne-Waver,51.069975,4.496116,3,stops:008822228,0
stops:008822228:4,Sint-Katelijne-Waver,51.069975,4.496116,4,stops:008822228,0
stops:008822251,Weerde,50.977449,4.470937,,,1
stops:008822251:0,Weerde,50.977449,4.470937,,stops:008822251,0
stops:008822251:1,Weerde,50.977449,4.470937,1,stops:008822251,0
stops:008822251:2,Weerde,50.977449,4.470937,2,stops:008822251,0
stops:008822251:3,Weerde,50.977449,4.470937,3,stops:008822251,0
stops:008822251:4,Weerde,50.977449,4.470937,4,stops:008822251,0
stops:008822269,Eppegem,50.9584,4.45749,,,1
stops:008822269:0,Eppegem,50.9584,4.45749,,stops:008822269,0
stops:008822269:1,Eppegem,50.9584,4.45749,1,stops:008822269,0
stops:008822269:2,Eppegem,50.9584,4.45749,2,stops:008822269,0
stops:008822269:3,Eppegem,50.9584,4.45749,3,stops:008822269,0
stops:008822269:4,Eppegem,50.9584,4.45749,4,stops:008822269,0
stops:008822277,Hofstade,50.988658,4.498336,,,1
stops:008822277:0,Hofstade,50.988658,4.498336,,stops:008822277,0
stops:008822277:1,Hofstade,50.988658,4.498336,1,stops:008822277,0
stops:008822277:2,Hofstade,50.988658,4.498336,2,stops:008822277,0
stops:008822343,Mechelen-Nekkerspoel,51.029883,4.489914,,,1
stops:008822343:0,Mechelen-Nekkerspoel,51.029883,4.489914,,stops:008822343,0
stops:008822343:1,Mechelen-Nekkerspoel,51.029883,4.489914,1,stops:008822343,0
stops:008822343:2,Mechelen-Nekkerspoel,51.029883,4.489914,2,stops:008822343,0
stops:008822343:3,Mechelen-Nekkerspoel,51.029883,4.489914,3,stops:008822343,0
stops:008822343:4,Mechelen-Nekkerspoel,51.029883,4.489914,4,stops:008822343,0
stops:008822426,Muizen,51.008201,4.513843,,,1
stops:008822426:0,Muizen,51.008201,4.513843,,stops:008822426,0
stops:008822426:1,Muizen,51.008201,4.513843,1,stops:008822426,0
stops:008822426:2,Muizen,51.008201,4.513843,2,stops:008822426,0
stops:008822426:3,Muizen,51.008201,4.513843,3,stops:008822426,0
stops:008822426:4,Muizen,51.008201,4.513843,4,stops:008822426,0
stops:008822459,Hever,50.997791,4.537637,,,1
stops:008822459:0,Hever,50.997791,4.537637,,stops:008822459,0
stops:008822459:1,Hever,50.997791,4.537637,1,stops:008822459,0
stops:008822459:2,Hever,50.997791,4.537637,2,stops:008822459,0
stops:008822475,Boortmeerbeek,50.981853,4.5739,,,1
stops:008822475:0,Boortmeerbeek,50.981853,4.5739,,stops:008822475,0
stops:008822475:1,Boortmeerbeek,50.981853,4.5739,1,stops:008822475,0
stops:008822475:2,Boortmeerbeek,50.981853,4.5739,2,stops:008822475,0
stops:008822517,Haacht,50.966428,4.613309,,,1
stops:008822517:0,Haacht,50.966428,4.613309,,stops:008822517,0
stops:008822517:1,Haacht,50.966428,4.613309,1,stops:008822517,0
stops:008822517:2,Haacht,50.966428,4.613309,2,stops:008822517,0
stops:008822525,Wespelaar-Tildonk,50.958544,4.638011,,,1
stops:008822525:0,Wespelaar-Tildonk,50.958544,4.638011,,stops:008822525,0
stops:008822525:1,Wespelaar-Tildonk,50.958544,4.638011,1,stops:008822525,0
stops:008822525:2,Wespelaar-Tildonk,50.958544,4.638011,2,stops:008822525,0
stops:008822533,Hambos,50.944251,4.66301,,,1
stops:008822533:0,Hambos,50.944251,4.66301,,stops:008822533,0
stops:008822533:1,Hambos,50.944251,4.66301,1,stops:008822533,0
stops:008822533:2,Hambos,50.944251,4.66301,2,stops:008822533,0
stops:008822608,Willebroek,51.066343,4.356019,,,1
stops:008822608:0,Willebroek,51.066343,4.356019,,stops:008822608,0
stops:008822608:1,Willebroek,51.066343,4.356019,1,stops:008822608,0
stops:008822608:2,Willebroek,51.066343,4.356019,2,stops:008822608,0
stops:008822715,Puurs,51.07722,4.282703,,,1
stops:008822715:0,Puurs,51.07722,4.282703,,stops:008822715,0
stops:008822715:1,Puurs,51.07722,4.282703,1,stops:008822715,0
stops:008822715:2,Puurs,51.07722,4.282703,2,stops:008822715,0
stops:008822715:3,Puurs,51.07722,4.282703,3,stops:008822715,0
stops:008822772,Bornem,51.099225,4.240526,,,1
stops:008822772:0,Bornem,51.099225,4.240526,,stops:008822772,0
stops:008822814,Boom,51.090713,4.360694,,,1
stops:008822814:0,Boom,51.090713,4.360694,,stops:008822814,0
stops:008822814:1,Boom,51.090713,4.360694,1,stops:008822814,0
stops:008822814:2,Boom,51.090713,4.360694,2,stops:008822814,0
stops:008822848,Ruisbroek-Sauvegarde,51.081022,4.324998,,,1
stops:008822848:0,Ruisbroek-Sauvegarde,51.081022,4.324998,,stops:008822848,0
stops:008822848:1,Ruisbroek-Sauvegarde,51.081022,4.324998,1,stops:008822848,0
stops:008824158,Hoboken-Polder,51.182699,4.347785,,,1
stops:008824158:0,Hoboken-Polder,51.182699,4.347785,,stops:008824158,0
stops:008824158:1,Hoboken-Polder,51.182699,4.347785,1,stops:008824158,0
stops:008824158:2,Hoboken-Polder,51.182699,4.347785,2,stops:008824158,0
stops:008824224,Hemiksem,51.136243,4.338293,,,1
stops:008824224:0,Hemiksem,51.136243,4.338293,,stops:008824224,0
stops:008824224:1,Hemiksem,51.136243,4.338293,1,stops:008824224,0
stops:008824224:2,Hemiksem,51.136243,4.338293,2,stops:008824224,0
stops:008824232,Schelle,51.12551,4.340261,,,1
stops:008824232:0,Schelle,51.12551,4.340261,,stops:008824232,0
stops:008824232:1,Schelle,51.12551,4.340261,1,stops:008824232,0
stops:008824232:2,Schelle,51.12551,4.340261,2,stops:008824232,0
stops:008824240,Niel,51.111595,4.338589,,,1
stops:008824240:0,Niel,51.111595,4.338589,,stops:008824240,0
stops:008824240:1,Niel,51.111595,4.338589,1,stops:008824240,0
stops:008824240:2,Niel,51.111595,4.338589,2,stops:008824240,0
stops:008831005,Hasselt,50.930822,5.327627,,,1
stops:008831005:0,Hasselt,50.930822,5.327627,,stops:008831005,0
stops:008831005:1,Hasselt,50.930822,5.327627,1,stops:008831005,0
stops:008831005:2,Hasselt,50.930822,5.327627,2,stops:008831005,0
stops:008831005:3,Hasselt,50.930822,5.327627,3,stops:008831005,0
stops:008831005:4,Hasselt,50.930822,5.327627,4,stops:008831005,0
stops:008831005:5,Hasselt,50.930822,5.327627,5,stops:008831005,0
stops:008831005:6,Hasselt,50.930822,5.327627,6,stops:008831005,0
stops:008831005:7,Hasselt,50.930822,5.327627,7,stops:008831005,0
stops:008831005:8,Hasselt,50.930822,5.327627,8,stops:008831005,0
stops:008831005:9,Hasselt,50.930822,5.327627,9,stops:008831005,0
stops:008831039,Alken,50.886837,5.292866,,,1
stops:008831039:0,Alken,50.886837,5.292866,,stops:008831039,0
stops:008831039:1,Alken,50.886837,5.292866,1,stops:008831039,0
stops:008831039:2,Alken,50.886837,5.292866,2,stops:008831039,0
stops:008831088,Schulen,50.963758,5.187405,,,1
stops:008831088:0,Schulen,50.963758,5.187405,,stops:008831088,0
stops:008831088:1,Schulen,50.963758,5.187405,1,stops:008831088,0
stops:008831088:2,Schulen,50.963758,5.187405,2,stops:008831088,0
stops:008831112,Diepenbeek,50.910452,5.419947,,,1
stops:008831112:0,Diepenbeek,50.910452,5.419947,,stops:008831112,0
stops:008831112:1,Diepenbeek,50.910452,5.419947,1,stops:008831112,0
stops:008831112:2,Diepenbeek,50.910452,5.419947,2,stops:008831112,0
stops:008831138,Bilzen,50.868643,5.50938,,,1
stops:008831138:0,Bilzen,50.868643,5.50938,,stops:008831138,0
stops:008831138:1,Bilzen,50.868643,5.50938,1,stops:008831138,0
stops:008831138:2,Bilzen,50.868643,5.50938,2,stops:008831138,0
stops:008831310,Tongeren,50.784405,5.47328,,,1
stops:008831310:0,Tongeren,50.784405,5.47328,,stops:008831310,0
stops:008831310:1,Tongeren,50.784405,5.47328,1,stops:008831310,0
stops:008831310:2,Tongeren,50.784405,5.47328,2,stops:008831310,0
stops:008831310:3,Tongeren,50.784405,5.47328,3,stops:008831310,0
stops:008831310:4,Tongeren,50.784405,5.47328,4,stops:008831310,0
stops:008831310:5,Tongeren,50.784405,5.47328,5,stops:008831310,0
stops:008831401,Diest,50.993341,5.050031,,,1
stops:008831401:0,Diest,50.993341,5.050031,,stops:008831401,0
stops:008831401:1,Diest,50.993341,5.050031,1,stops:008831401,0
stops:008831401:2,Diest,50.993341,5.050031,2,stops:008831401,0
stops:008831765,Genk,50.967057,5.497685,,,1
stops:008831765:0,Genk,50.967057,5.497685,,stops:008831765,0
stops:008831765:1,Genk,50.967057,5.497685,1,stops:008831765,0
stops:008831765:2,Genk,50.967057,5.497685,2,stops:008831765,0
stops:008831765:3,Genk,50.967057,5.497685,3,stops:008831765,0
stops:008831781,Bokrijk,50.955812,5.408386,,,1
stops:008831781:0,Bokrijk,50.955812,5.408386,,stops:008831781,0
stops:008831781:1,Bokrijk,50.955812,5.408386,1,stops:008831781,0
stops:008831781:2,Bokrijk,50.955812,5.408386,2,stops:008831781,0
stops:008831807,Sint-Truiden,50.81762,5.176654,,,1
stops:008831807:0,Sint-Truiden,50.81762,5.176654,,stops:008831807,0
stops:008831807:1,Sint-Truiden,50.81762,5.176654,1,stops:008831807,0
stops:008831807:2,Sint-Truiden,50.81762,5.176654,2,stops:008831807,0
stops:008832003,Leopoldsburg,51.117312,5.257287,,,1
stops:008832003:0,Leopoldsburg,51.117312,5.257287,,stops:008832003,0
stops:008832003:1,Leopoldsburg,51.117312,5.257287,1,stops:008832003,0
stops:008832045,Balen,51.169099,5.164986,,,1
stops:008832045:0,Balen,51.169099,5.164986,,stops:008832045,0
stops:008832045:1,Balen,51.169099,5.164986,1,stops:008832045,0
stops:008832227,Beverlo,51.087719,5.234373,,,1
stops:008832227:0,Beverlo,51.087719,5.234373,,stops:008832227,0
stops:008832227:1,Beverlo,51.087719,5.234373,1,stops:008832227,0
stops:008832235,Beringen,51.050603,5.235892,,,1
stops:008832235:0,Beringen,51.050603,5.235892,,stops:008832235,0
stops:008832235:1,Beringen,51.050603,5.235892,1,stops:008832235,0
stops:008832235:2,Beringen,51.050603,5.235892,2,stops:008832235,0
stops:008832243,Heusden,51.038207,5.281782,,,1
stops:008832243:0,Heusden,51.038207,5.281782,,stops:008832243,0
stops:008832243:1,Heusden,51.038207,5.281782,1,stops:008832243,0
stops:008832243:2,Heusden,51.038207,5.281782,2,stops:008832243,0
stops:008832250,Zolder,51.033548,5.3299,,,1
stops:008832250:0,Zolder,51.033548,5.3299,,stops:008832250,0
stops:008832250:1,Zolder,51.033548,5.3299,1,stops:008832250,0
stops:008832334,Zonhoven,50.989557,5.348815,,,1
stops:008832334:0,Zonhoven,50.989557,5.348815,,stops:008832334,0
stops:008832334:1,Zonhoven,50.989557,5.348815,1,stops:008832334,0
stops:008832375,Kiewit,50.954841,5.350226,,,1
stops:008832375:0,Kiewit,50.954841,5.350226,,stops:008832375,0
stops:008832375:1,Kiewit,50.954841,5.350226,1,stops:008832375,0
stops:008832375:2,Kiewit,50.954841,5.350226,2,stops:008832375,0
stops:008832409,Mol,51.19105,5.116336,,,1
stops:008832409:0,Mol,51.19105,5.116336,,stops:008832409,0
stops:008832409:1,Mol,51.19105,5.116336,1,stops:008832409,0
stops:008832409:2,Mol,51.19105,5.116336,2,stops:008832409,0
stops:008832409:A,Mol,51.19105,5.116336,A,stops:008832409,0
stops:008832433,Geel,51.168955,4.988608,,,1
stops:008832433:0,Geel,51.168955,4.988608,,stops:008832433,0
stops:008832433:1,Geel,51.168955,4.988608,1,stops:008832433,0
stops:008832433:2,Geel,51.168955,4.988608,2,stops:008832433,0
stops:008832458,Olen,51.188057,4.847585,,,1
stops:008832458:0,Olen,51.188057,4.847585,,stops:008832458,0
stops:008832458:1,Olen,51.188057,4.847585,1,stops:008832458,0
stops:008832458:2,Olen,51.188057,4.847585,2,stops:008832458,0
stops:008832565,Lommel,51.211564,5.312031,,,1
stops:008832565:0,Lommel,51.211564,5.312031,,stops:008832565,0
stops:008832565:1,Lommel,51.211564,5.312031,1,stops:008832565,0
stops:008832573,Overpelt,51.215618,5.422751,,,1
stops:008832573:0,Overpelt,51.215618,5.422751,,stops:008832573,0
stops:008832573:1,Overpelt,51.215618,5.422751,1,stops:008832573,0
stops:008832615,Neerpelt,51.222369,5.43717,,,1
stops:008832615:0,Neerpelt,51.222369,5.43717,,stops:008832615,0
stops:008832615:1,Neerpelt,51.222369,5.43717,1,stops:008832615,0
stops:008832615:2,Neerpelt,51.222369,5.43717,2,stops:008832615,0
stops:008832664,Hamont,51.246424,5.543279,,,1
stops:008832664:0,Hamont,51.246424,5.543279,,stops:008832664,0
stops:008832664:1,Hamont,51.246424,5.543279,1,stops:008832664,0
stops:008833001,Leuven,50.88228,4.715866,,,1
stops:008833001:0,Leuven,50.88228,4.715866,,stops:008833001,0
stops:008833001:1,Leuven,50.88228,4.715866,1,stops:008833001,0
stops:008833001:2,Leuven,50.88228,4.715866,2,stops:008833001,0
stops:008833001:3,Leuven,50.88228,4.715866,3,stops:008833001,0
stops:008833001:4,Leuven,50.88228,4.715866,4,stops:008833001,0
stops:008833001:5,Leuven,50.88228,4.715866,5,stops:008833001,0
stops:008833001:6,Leuven,50.88228,4.715866,6,stops:008833001,0
stops:008833001:7,Leuven,50.88228,4.715866,7,stops:008833001,0
stops:008833001:8,Leuven,50.88228,4.715866,8,stops:008833001,0
stops:008833001:9,Leuven,50.88228,4.715866,9,stops:008833001,0
stops:008833001:A,Leuven,50.88228,4.715866,A,stops:008833001,0
stops:008833001:B,Leuven,50.88228,4.715866,B,stops:008833001,0
stops:008833001:C,Leuven,50.88228,4.715866,C,stops:008833001,0
stops:008833001:D,Leuven,50.88228,4.715866,D,stops:008833001,0
stops:008833050,Vertrijk,50.836282,4.835522,,,1
stops:008833050:0,Vertrijk,50.836282,4.835522,,stops:008833050,0
stops:008833050:1,Vertrijk,50.836282,4.835522,1,stops:008833050,0
stops:008833050:2,Vertrijk,50.836282,4.835522,2,stops:008833050,0
stops:008833126,Heverlee,50.86253,4.6952,,,1
stops:008833126:0,Heverlee,50.86253,4.6952,,stops:008833126,0
stops:008833126:1,Heverlee,50.86253,4.6952,1,stops:008833126,0
stops:008833126:2,Heverlee,50.86253,4.6952,2,stops:008833126,0
stops:008833134,Oud-Heverlee,50.835931,4.653311,,,1
stops:008833134:0,Oud-Heverlee,50.835931,4.653311,,stops:008833134,0
stops:008833134:1,Oud-Heverlee,50.835931,4.653311,1,stops:008833134,0
stops:008833134:2,Oud-Heverlee,50.835931,4.653311,2,stops:008833134,0
stops:008833159,Sint-Joris-Weert,50.800631,4.651728,,,1
stops:008833159:0,Sint-Joris-Weert,50.800631,4.651728,,stops:008833159,0
stops:008833159:1,Sint-Joris-Weert,50.800631,4.651728,1,stops:008833159,0
stops:008833159:2,Sint-Joris-Weert,50.800631,4.651728,2,stops:008833159,0
stops:008833175,Wijgmaal,50.92274,4.701475,,,1
stops:008833175:0,Wijgmaal,50.92274,4.701475,,stops:008833175,0
stops:008833175:1,Wijgmaal,50.92274,4.701475,1,stops:008833175,0
stops:008833175:2,Wijgmaal,50.92274,4.701475,2,stops:008833175,0
stops:008833209,Aarschot,50.984406,4.824043,,,1
stops:008833209:0,Aarschot,50.984406,4.824043,,stops:008833209,0
stops:008833209:1,Aarschot,50.984406,4.824043,1,stops:008833209,0
stops:008833209:2,Aarschot,50.984406,4.824043,2,stops:008833209,0
stops:008833209:3,Aarschot,50.984406,4.824043,3,stops:008833209,0
stops:008833233,Wezemaal,50.956261,4.747679,,,1
stops:008833233:0,Wezemaal,50.956261,4.747679,,stops:008833233,0
stops:008833233:1,Wezemaal,50.956261,4.747679,1,stops:008833233,0
stops:008833233:2,Wezemaal,50.956261,4.747679,2,stops:008833233,0
stops:008833258,Langdorp,51.002466,4.863541,,,1
stops:008833258:0,Langdorp,51.002466,4.863541,,stops:008833258,0
stops:008833258:1,Langdorp,51.002466,4.863541,1,stops:008833258,0
stops:008833258:2,Langdorp,51.002466,4.863541,2,stops:008833258,0
stops:008833266,Testelt,51.009864,4.945829,,,1
stops:008833266:0,Testelt,51.009864,4.945829,,stops:008833266,0
stops:008833266:1,Testelt,51.009864,4.945829,1,stops:008833266,0
stops:008833266:2,Testelt,51.009864,4.945829,2,stops:008833266,0
stops:008833274,Zichem,51.00669,4.987359,,,1
stops:008833274:0,Zichem,51.00669,4.987359,,stops:008833274,0
stops:008833274:1,Zichem,51.00669,4.987359,1,stops:008833274,0
stops:008833274:2,Zichem,51.00669,4.987359,2,stops:008833274,0
stops:008833308,Tienen,50.80802,4.92581,,,1
stops:008833308:0,Tienen,50.80802,4.92581,,stops:008833308,0
stops:008833308:1,Tienen,50.80802,4.92581,1,stops:008833308,0
stops:008833308:2,Tienen,50.80802,4.92581,2,stops:008833308,0
stops:008833308:3,Tienen,50.80802,4.92581,3,stops:008833308,0
stops:008833308:4,Tienen,50.80802,4.92581,4,stops:008833308,0
stops:008833308:5,Tienen,50.80802,4.92581,5,stops:008833308,0
stops:008833449,Ezemaal,50.772126,4.994217,,,1
stops:008833449:0,Ezemaal,50.772126,4.994217,,stops:008833449,0
stops:008833449:1,Ezemaal,50.772126,4.994217,1,stops:008833449,0
stops:008833449:2,Ezemaal,50.772126,4.994217,2,stops:008833449,0
stops:008833605,Landen,50.747927,5.07966,,,1
stops:008833605:0,Landen,50.747927,5.07966,,stops:008833605,0
stops:008833605:1,Landen,50.747927,5.07966,1,stops:008833605,0
stops:008833605:2,Landen,50.747927,5.07966,2,stops:008833605,0
stops:008833605:3,Landen,50.747927,5.07966,3,stops:008833605,0
stops:008833605:4,Landen,50.747927,5.07966,4,stops:008833605,0
stops:008833605:5,Landen,50.747927,5.07966,5,stops:008833605,0
stops:008833670,Neerwinden,50.763964,5.036323,,,1
stops:008833670:0,Neerwinden,50.763964,5.036323,,stops:008833670,0
stops:008833670:1,Neerwinden,50.763964,5.036323,1,stops:008833670,0
stops:008833670:2,Neerwinden,50.763964,5.036323,2,stops:008833670,0
stops:008841004,Liège-Guillemins,50.62455,5.566695,,,1
stops:008841004:0,Liège-Guillemins,50.62455,5.566695,,stops:008841004,0
stops:008841004:1,Liège-Guillemins,50.62455,5.566695,1,stops:008841004,0
stops:008841004:2,Liège-Guillemins,50.62455,5.566695,2,stops:008841004,0
stops:008841004:3,Liège-Guillemins,50.62455,5.566695,3,stops:008841004,0
stops:008841004:4,Liège-Guillemins,50.62455,5.566695,4,stops:008841004,0
stops:008841004:5,Liège-Guillemins,50.62455,5.566695,5,stops:008841004,0
stops:008841004:6,Liège-Guillemins,50.62455,5.566695,6,stops:008841004,0
stops:008841004:7,Liège-Guillemins,50.62455,5.566695,7,stops:008841004,0
stops:008841004:8,Liège-Guillemins,50.62455,5.566695,8,stops:008841004,0
stops:008841004:9,Liège-Guillemins,50.62455,5.566695,9,stops:008841004,0
stops:008841202,Ans,50.661208,5.509704,,,1
stops:008841202:0,Ans,50.661208,5.509704,,stops:008841202,0
stops:008841202:1,Ans,50.661208,5.509704,1,stops:008841202,0
stops:008841202:2,Ans,50.661208,5.509704,2,stops:008841202,0
stops:008841202:3,Ans,50.661208,5.509704,3,stops:008841202,0
stops:008841202:4,Ans,50.661208,5.509704,4,stops:008841202,0
stops:008841202:5,Ans,50.661208,5.509704,5,stops:008841202,0
stops:008841319,Bierset-Awans,50.65861,5.460551,,,1
stops:008841319:0,Bierset-Awans,50.65861,5.460551,,stops:008841319,0
stops:008841319:1,Bierset-Awans,50.65861,5.460551,1,stops:008841319,0
stops:008841319:2,Bierset-Awans,50.65861,5.460551,2,stops:008841319,0
stops:008841327,Voroux,50.66181,5.429556,,,1
stops:008841327:0,Voroux,50.66181,5.429556,,stops:008841327,0
stops:008841327:1,Voroux,50.66181,5.429556,1,stops:008841327,0
stops:008841327:2,Voroux,50.66181,5.429556,2,stops:008841327,0
stops:008841400,Waremme,50.694549,5.249475,,,1
stops:008841400:0,Waremme,50.694549,5.249475,,stops:008841400,0
stops:008841400:1,Waremme,50.694549,5.249475,1,stops:008841400,0
stops:008841400:2,Waremme,50.694549,5.249475,2,stops:008841400,0
stops:008841400:3,Waremme,50.694549,5.249475,3,stops:008841400,0
stops:008841400:4,Waremme,50.694549,5.249475,4,stops:008841400,0
stops:008841434,Bleret,50.685065,5.286394,,,1
stops:008841434:0,Bleret,50.685065,5.286394,,stops:008841434,0
stops:008841434:1,Bleret,50.685065,5.286394,1,stops:008841434,0
stops:008841434:2,Bleret,50.685065,5.286394,2,stops:008841434,0
stops:008841442,Remicourt,50.678611,5.321407,,,1
stops:008841442:0,Remicourt,50.678611,5.321407,,stops:008841442,0
stops:008841442:1,Remicourt,50.678611,5.321407,1,stops:008841442,0
stops:008841442:2,Remicourt,50.678611,5.321407,2,stops:008841442,0
stops:008841459,Momalle,50.66991,5.367602,,,1
stops:008841459:0,Momalle,50.66991,5.367602,,stops:008841459,0
stops:008841459:1,Momalle,50.66991,5.367602,1,stops:008841459,0
stops:008841459:2,Momalle,50.66991,5.367602,2,stops:008841459,0
stops:008841467,Fexhe-le-Haut-Clocher,50.664049,5.398453,,,1
stops:008841467:0,Fexhe-le-Haut-Clocher,50.664049,5.398453,,stops:008841467,0
stops:008841467:1,Fexhe-le-Haut-Clocher,50.664049,5.398453,1,stops:008841467,0
stops:008841467:2,Fexhe-le-Haut-Clocher,50.664049,5.398453,2,stops:008841467,0
stops:008841525,Liège-Palais,50.646349,5.570453,,,1
stops:008841525:0,Liège-Palais,50.646349,5.570453,,stops:008841525,0
stops:008841525:1,Liège-Palais,50.646349,5.570453,1,stops:008841525,0
stops:008841525:2,Liège-Palais,50.646349,5.570453,2,stops:008841525,0
stops:008841525:3,Liège-Palais,50.646349,5.570453,3,stops:008841525,0
stops:008841525:4,Liège-Palais,50.646349,5.570453,4,stops:008841525,0
stops:008841558,Liège-Jonfosse,50.640299,5.561131,,,1
stops:008841558:0,Liège-Jonfosse,50.640299,5.561131,,stops:008841558,0
stops:008841558:1,Liège-Jonfosse,50.640299,5.561131,1,stops:008841558,0
stops:008841558:2,Liège-Jonfosse,50.640299,5.561131,2,stops:008841558,0
stops:008841608,Herstal,50.660911,5.622761,,,1
stops:008841608:0,Herstal,50.660911,5.622761,,stops:008841608,0
stops:008841608:1,Herstal,50.660911,5.622761,1,stops:008841608,0
stops:008841608:2,Herstal,50.660911,5.622761,2,stops:008841608,0
stops:008841608:3,Herstal,50.660911,5.622761,3,stops:008841608,0
stops:008841665,Milmort,50.692455,5.60009,,,1
stops:008841665:0,Milmort,50.692455,5.60009,,stops:008841665,0
stops:008841665:1,Milmort,50.692455,5.60009,1,stops:008841665,0
stops:008841665:2,Milmort,50.692455,5.60009,2,stops:008841665,0
stops:008841673,Liers,50.698181,5.56683,,,1
stops:008841673:0,Liers,50.698181,5.56683,,stops:008841673,0
stops:008841673:1,Liers,50.698181,5.56683,1,stops:008841673,0
stops:008841673:2,Liers,50.698181,5.56683,2,stops:008841673,0
stops:008841673:3,Liers,50.698181,5.56683,3,stops:008841673,0
stops:008841731,Glons,50.750426,5.535431,,,1
stops:008841731:0,Glons,50.750426,5.535431,,stops:008841731,0
stops:008841731:1,Glons,50.750426,5.535431,1,stops:008841731,0
stops:008841731:2,Glons,50.750426,5.535431,2,stops:008841731,0
stops:008842002,Angleur,50.613152,5.599695,,,1
stops:008842002:0,Angleur,50.613152,5.599695,,stops:008842002,0
stops:008842002:1,Angleur,50.613152,5.599695,1,stops:008842002,0
stops:008842002:2,Angleur,50.613152,5.599695,2,stops:008842002,0
stops:008842002:3,Angleur,50.613152,5.599695,3,stops:008842002,0
stops:008842002:4,Angleur,50.613152,5.599695,4,stops:008842002,0
stops:008842002:5,Angleur,50.613152,5.599695,5,stops:008842002,0
stops:008842036,Chênée,50.608019,5.616073,,,1
stops:008842036:0,Chênée,50.608019,5.616073,,stops:008842036,0
stops:008842036:1,Chênée,50.608019,5.616073,1,stops:008842036,0
stops:008842036:2,Chênée,50.608019,5.616073,2,stops:008842036,0
stops:008842630,Tilff,50.570624,5.583937,,,1
stops:008842630:0,Tilff,50.570624,5.583937,,stops:008842630,0
stops:008842630:1,Tilff,50.570624,5.583937,1,stops:008842630,0
stops:008842648,Méry,50.54762,5.587236,,,1
stops:008842648:0,Méry,50.54762,5.587236,,stops:008842648,0
stops:008842648:1,Méry,50.54762,5.587236,1,stops:008842648,0
stops:008842655,Hony,50.539917,5.573563,,,1
stops:008842655:0,Hony,50.539917,5.573563,,stops:008842655,0
stops:008842655:1,Hony,50.539917,5.573563,1,stops:008842655,0
stops:008842663,Esneux,50.530568,5.572565,,,1
stops:008842663:0,Esneux,50.530568,5.572565,,stops:008842663,0
stops:008842663:1,Esneux,50.530568,5.572565,1,stops:008842663,0
stops:008842689,Poulseur,50.509209,5.578858,,,1
stops:008842689:0,Poulseur,50.509209,5.578858,,stops:008842689,0
stops:008842689:1,Poulseur,50.509209,5.578858,1,stops:008842689,0
stops:008842689:2,Poulseur,50.509209,5.578858,2,stops:008842689,0
stops:008842705,Rivage,50.483285,5.587631,,,1
stops:008842705:0,Rivage,50.483285,5.587631,,stops:008842705,0
stops:008842705:1,Rivage,50.483285,5.587631,1,stops:008842705,0
stops:008842705:2,Rivage,50.483285,5.587631,2,stops:008842705,0
stops:008842754,Aywaille,50.472938,5.672499,,,1
stops:008842754:0,Aywaille,50.472938,5.672499,,stops:008842754,0
stops:008842754:1,Aywaille,50.472938,5.672499,1,stops:008842754,0
stops:008842754:2,Aywaille,50.472938,5.672499,2,stops:008842754,0
stops:008842838,Comblain-la-Tour,50.456865,5.566956,,,1
stops:008842838:0,Comblain-la-Tour,50.456865,5.566956,,stops:008842838,0
stops:008842838:1,Comblain-la-Tour,50.456865,5.566956,1,stops:008842838,0
stops:008842838:2,Comblain-la-Tour,50.456865,5.566956,2,stops:008842838,0
stops:008842846,Hamoir,50.428181,5.533561,,,1
stops:008842846:0,Hamoir,50.428181,5.533561,,stops:008842846,0
stops:008842846:1,Hamoir,50.428181,5.533561,1,stops:008842846,0
stops:008842846:2,Hamoir,50.428181,5.533561,2,stops:008842846,0
stops:008842853,Sy,50.403254,5.523565,,,1
stops:008842853:0,Sy,50.403254,5.523565,,stops:008842853,0
stops:008842853:1,Sy,50.403254,5.523565,1,stops:008842853,0
stops:008842853:2,Sy,50.403254,5.523565,2,stops:008842853,0
stops:008843133,Sclessin,50.609844,5.558911,,,1
stops:008843133:0,Sclessin,50.609844,5.558911,,stops:008843133,0
stops:008843133:1,Sclessin,50.609844,5.558911,1,stops:008843133,0
stops:008843133:2,Sclessin,50.609844,5.558911,2,stops:008843133,0
stops:008843141,Pont-de-Seraing,50.619651,5.510162,,,1
stops:008843141:0,Pont-de-Seraing,50.619651,5.510162,,stops:008843141,0
stops:008843141:1,Pont-de-Seraing,50.619651,5.510162,1,stops:008843141,0
stops:008843141:2,Pont-de-Seraing,50.619651,5.510162,2,stops:008843141,0
stops:008843158,Jemeppe-sur-Meuse,50.618446,5.497874,,,1
stops:008843158:0,Jemeppe-sur-Meuse,50.618446,5.497874,,stops:008843158,0
stops:008843158:1,Jemeppe-sur-Meuse,50.618446,5.497874,1,stops:008843158,0
stops:008843158:2,Jemeppe-sur-Meuse,50.618446,5.497874,2,stops:008843158,0
stops:008843166,Flemalle-Grande,50.605349,5.480983,,,1
stops:008843166:0,Flemalle-Grande,50.605349,5.480983,,stops:008843166,0
stops:008843166:1,Flemalle-Grande,50.605349,5.480983,1,stops:008843166,0
stops:008843166:2,Flemalle-Grande,50.605349,5.480983,2,stops:008843166,0
stops:008843208,Flemalle-Haute,50.595308,5.457656,,,1
stops:008843208:0,Flemalle-Haute,50.595308,5.457656,,stops:008843208,0
stops:008843208:1,Flemalle-Haute,50.595308,5.457656,1,stops:008843208,0
stops:008843208:2,Flemalle-Haute,50.595308,5.457656,2,stops:008843208,0
stops:008843208:3,Flemalle-Haute,50.595308,5.457656,3,stops:008843208,0
stops:008843208:4,Flemalle-Haute,50.595308,5.457656,4,stops:008843208,0
stops:008843224,Leman,50.600396,5.468309,,,1
stops:008843224:0,Leman,50.600396,5.468309,,stops:008843224,0
stops:008843224:1,Leman,50.600396,5.468309,1,stops:008843224,0
stops:008843224:2,Leman,50.600396,5.468309,2,stops:008843224,0
stops:008843240,Engis,50.582957,5.401986,,,1
stops:008843240:0,Engis,50.582957,5.401986,,stops:008843240,0
stops:008843307,Huy,50.527242,5.234211,,,1
stops:008843307:0,Huy,50.527242,5.234211,,stops:008843307,0
stops:008843307:1,Huy,50.527242,5.234211,1,stops:008843307,0
stops:008843307:2,Huy,50.527242,5.234211,2,stops:008843307,0
stops:008843307:3,Huy,50.527242,5.234211,3,stops:008843307,0
stops:008843323,Ampsin,50.539215,5.289729,,,1
stops:008843323:0,Ampsin,50.539215,5.289729,,stops:008843323,0
stops:008843331,Amay,50.546011,5.32049,,,1
stops:008843331:0,Amay,50.546011,5.32049,,stops:008843331,0
stops:008843349,Haute-Flône,50.55349,5.330333,,,1
stops:008843349:0,Haute-Flône,50.55349,5.330333,,stops:008843349,0
stops:008843406,Statte,50.528276,5.219676,,,1
stops:008843406:0,Statte,50.528276,5.219676,,stops:008843406,0
stops:008843406:1,Statte,50.528276,5.219676,1,stops:008843406,0
stops:008843406:2,Statte,50.528276,5.219676,2,stops:008843406,0
stops:008843406:3,Statte,50.528276,5.219676,3,stops:008843406,0
stops:008843406:4,Statte,50.528276,5.219676,4,stops:008843406,0
stops:008843406:5,Statte,50.528276,5.219676,5,stops:008843406,0
stops:008843406:6,Statte,50.528276,5.219676,6,stops:008843406,0
stops:008843406:7,Statte,50.528276,5.219676,7,stops:008843406,0
stops:008843430,Bas-Oha,50.52263,5.190937,,,1
stops:008843430:0,Bas-Oha,50.52263,5.190937,,stops:008843430,0
stops:008843430:1,Bas-Oha,50.52263,5.190937,1,stops:008843430,0
stops:008843430:2,Bas-Oha,50.52263,5.190937,2,stops:008843430,0
stops:008843901,Bressoux,50.643967,5.611057,,,1
stops:008843901:0,Bressoux,50.643967,5.611057,,stops:008843901,0
stops:008843901:1,Bressoux,50.643967,5.611057,1,stops:008843901,0
stops:008843901:2,Bressoux,50.643967,5.611057,2,stops:008843901,0
stops:008844008,Verviers-Central,50.588135,5.854917,,,1
stops:008844008:0,Verviers-Central,50.588135,5.854917,,stops:008844008,0
stops:008844008:1,Verviers-Central,50.588135,5.854917,1,stops:008844008,0
stops:008844008:2,Verviers-Central,50.588135,5.854917,2,stops:008844008,0
stops:008844008:3,Verviers-Central,50.588135,5.854917,3,stops:008844008,0
stops:008844008:4,Verviers-Central,50.588135,5.854917,4,stops:008844008,0
stops:008844008:5,Verviers-Central,50.588135,5.854917,5,stops:008844008,0
stops:008844057,Verviers-Palais,50.590921,5.865335,,,1
stops:008844057:0,Verviers-Palais,50.590921,5.865335,,stops:008844057,0
stops:008844057:1,Verviers-Palais,50.590921,5.865335,1,stops:008844057,0
stops:008844057:2,Verviers-Palais,50.590921,5.865335,2,stops:008844057,0
stops:008844206,Pepinster,50.568179,5.80615,,,1
stops:008844206:0,Pepinster,50.568179,5.80615,,stops:008844206,0
stops:008844206:1,Pepinster,50.568179,5.80615,1,stops:008844206,0
stops:008844206:2,Pepinster,50.568179,5.80615,2,stops:008844206,0
stops:008844206:3,Pepinster,50.568179,5.80615,3,stops:008844206,0
stops:008844230,Nessonvaux,50.572089,5.741581,,,1
stops:008844230:0,Nessonvaux,50.572089,5.741581,,stops:008844230,0
stops:008844230:1,Nessonvaux,50.572089,5.741581,1,stops:008844230,0
stops:008844230:2,Nessonvaux,50.572089,5.741581,2,stops:008844230,0
stops:008844255,Fraipont,50.565059,5.723665,,,1
stops:008844255:0,Fraipont,50.565059,5.723665,,stops:008844255,0
stops:008844255:1,Fraipont,50.565059,5.723665,1,stops:008844255,0
stops:008844255:2,Fraipont,50.565059,5.723665,2,stops:008844255,0
stops:008844271,Trooz,50.573213,5.688346,,,1
stops:008844271:0,Trooz,50.573213,5.688346,,stops:008844271,0
stops:008844271:1,Trooz,50.573213,5.688346,1,stops:008844271,0
stops:008844271:2,Trooz,50.573213,5.688346,2,stops:008844271,0
stops:008844313,Pepinster-Cité,50.563405,5.804397,,,1
stops:008844313:0,Pepinster-Cité,50.563405,5.804397,,stops:008844313,0
stops:008844313:1,Pepinster-Cité,50.563405,5.804397,1,stops:008844313,0
stops:008844321,Juslenville,50.544717,5.809935,,,1
stops:008844321:0,Juslenville,50.544717,5.809935,,stops:008844321,0
stops:008844321:1,Juslenville,50.544717,5.809935,1,stops:008844321,0
stops:008844339,Theux,50.536159,5.815031,,,1
stops:008844339:0,Theux,50.536159,5.815031,,stops:008844339,0
stops:008844339:1,Theux,50.536159,5.815031,1,stops:008844339,0
stops:008844339:2,Theux,50.536159,5.815031,2,stops:008844339,0
stops:008844347,Franchimont,50.525723,5.822223,,,1
stops:008844347:0,Franchimont,50.525723,5.822223,,stops:008844347,0
stops:008844347:1,Franchimont,50.525723,5.822223,1,stops:008844347,0
stops:008844404,Spa,50.490305,5.855096,,,1
stops:008844404:0,Spa,50.490305,5.855096,,stops:008844404,0
stops:008844404:1,Spa,50.490305,5.855096,1,stops:008844404,0
stops:008844420,Spa-Géronstère,50.489307,5.866207,,,1
stops:008844420:0,Spa-Géronstère,50.489307,5.866207,,stops:008844420,0
stops:008844420:1,Spa-Géronstère,50.489307,5.866207,1,stops:008844420,0
stops:008844503,Welkenraedt,50.659707,5.975381,,,1
stops:008844503:0,Welkenraedt,50.659707,5.975381,,stops:008844503,0
stops:008844503:1,Welkenraedt,50.659707,5.975381,1,stops:008844503,0
stops:008844503:2,Welkenraedt,50.659707,5.975381,2,stops:008844503,0
stops:008844503:3,Welkenraedt,50.659707,5.975381,3,stops:008844503,0
stops:008844503:4,Welkenraedt,50.659707,5.975381,4,stops:008844503,0
stops:008844503:5,Welkenraedt,50.659707,5.975381,5,stops:008844503,0
stops:008844503:6,Welkenraedt,50.659707,5.975381,6,stops:008844503,0
stops:008844545,Dolhain-Gileppe,50.616244,5.936494,,,1
stops:008844545:0,Dolhain-Gileppe,50.616244,5.936494,,stops:008844545,0
stops:008844545:1,Dolhain-Gileppe,50.616244,5.936494,1,stops:008844545,0
stops:008844545:2,Dolhain-Gileppe,50.616244,5.936494,2,stops:008844545,0
stops:008844628,Eupen,50.635157,6.03711,,,1
stops:008844628:0,Eupen,50.635157,6.03711,,stops:008844628,0
stops:008844628:1,Eupen,50.635157,6.03711,1,stops:008844628,0
stops:008844628:2,Eupen,50.635157,6.03711,2,stops:008844628,0
stops:008844644,Hergenrath,50.718209,6.041335,,,1
stops:008844644:0,Hergenrath,50.718209,6.041335,,stops:008844644,0
stops:008844644:1,Hergenrath,50.718209,6.041335,1,stops:008844644,0
stops:008844644:2,Hergenrath,50.718209,6.041335,2,stops:008844644,0
stops:008845005,Gouvy,50.189409,5.953906,,,1
stops:008845005:0,Gouvy,50.189409,5.953906,,stops:008845005,0
stops:008845005:1,Gouvy,50.189409,5.953906,1,stops:008845005,0
stops:008845005:2,Gouvy,50.189409,5.953906,2,stops:008845005,0
stops:008845146,Vielsalm,50.278933,5.909211,,,1
stops:008845146:0,Vielsalm,50.278933,5.909211,,stops:008845146,0
stops:008845146:1,Vielsalm,50.278933,5.909211,1,stops:008845146,0
stops:008845146:2,Vielsalm,50.278933,5.909211,2,stops:008845146,0
stops:008845203,Trois-Ponts,50.368214,5.873578,,,1
stops:008845203:0,Trois-Ponts,50.368214,5.873578,,stops:008845203,0
stops:008845203:1,Trois-Ponts,50.368214,5.873578,1,stops:008845203,0
stops:008845203:2,Trois-Ponts,50.368214,5.873578,2,stops:008845203,0
stops:008845229,Coo,50.391127,5.880473,,,1
stops:008845229:0,Coo,50.391127,5.880473,,stops:008845229,0
stops:008845229:1,Coo,50.391127,5.880473,1,stops:008845229,0
stops:008846201,Visé,50.73776,5.692544,,,1
stops:008846201:0,Visé,50.73776,5.692544,,stops:008846201,0
stops:008846201:1,Visé,50.73776,5.692544,1,stops:008846201,0
stops:008846201:2,Visé,50.73776,5.692544,2,stops:008846201,0
stops:008861119,Ronet,50.457737,4.82842,,,1
stops:008861119:0,Ronet,50.457737,4.82842,,stops:008861119,0
stops:008861119:1,Ronet,50.457737,4.82842,1,stops:008861119,0
stops:008861119:2,Ronet,50.457737,4.82842,2,stops:008861119,0
stops:008861119:3,Ronet,50.457737,4.82842,3,stops:008861119,0
stops:008861127,Flawinne,50.456236,4.806298,,,1
stops:008861127:0,Flawinne,50.456236,4.806298,,stops:008861127,0
stops:008861127:1,Flawinne,50.456236,4.806298,1,stops:008861127,0
stops:008861127:2,Flawinne,50.456236,4.806298,2,stops:008861127,0
stops:008861135,Floreffe,50.443328,4.762368,,,1
stops:008861135:0,Floreffe,50.443328,4.762368,,stops:008861135,0
stops:008861135:1,Floreffe,50.443328,4.762368,1,stops:008861135,0
stops:008861135:2,Floreffe,50.443328,4.762368,2,stops:008861135,0
stops:008861135:3,Floreffe,50.443328,4.762368,3,stops:008861135,0
stops:008861143,Franière,50.439543,4.733548,,,1
stops:008861143:0,Franière,50.439543,4.733548,,stops:008861143,0
stops:008861143:1,Franière,50.439543,4.733548,1,stops:008861143,0
stops:008861143:2,Franière,50.439543,4.733548,2,stops:008861143,0
stops:008861150,Moustier,50.452748,4.693807,,,1
stops:008861150:0,Moustier,50.452748,4.693807,,stops:008861150,0
stops:008861150:1,Moustier,50.452748,4.693807,1,stops:008861150,0
stops:008861150:2,Moustier,50.452748,4.693807,2,stops:008861150,0
stops:008861168,Ham-sur-Sambre,50.45255,4.669392,,,1
stops:008861168:0,Ham-sur-Sambre,50.45255,4.669392,,stops:008861168,0
stops:008861168:1,Ham-sur-Sambre,50.45255,4.669392,1,stops:008861168,0
stops:008861168:2,Ham-sur-Sambre,50.45255,4.669392,2,stops:008861168,0
stops:008861200,Gembloux,50.570489,4.691497,,,1
stops:008861200:0,Gembloux,50.570489,4.691497,,stops:008861200,0
stops:008861200:1,Gembloux,50.570489,4.691497,1,stops:008861200,0
stops:008861200:2,Gembloux,50.570489,4.691497,2,stops:008861200,0
stops:008861200:3,Gembloux,50.570489,4.691497,3,stops:008861200,0
stops:008861200:4,Gembloux,50.570489,4.691497,4,stops:008861200,0
stops:008861200:5,Gembloux,50.570489,4.691497,5,stops:008861200,0
stops:008861317,Chapelle-Dieu,50.557374,4.697627,,,1
stops:008861317:0,Chapelle-Dieu,50.557374,4.697627,,stops:008861317,0
stops:008861317:1,Chapelle-Dieu,50.557374,4.697627,1,stops:008861317,0
stops:008861333,Mazy,50.513497,4.675829,,,1
stops:008861333:0,Mazy,50.513497,4.675829,,stops:008861333,0
stops:008861333:1,Mazy,50.513497,4.675829,1,stops:008861333,0
stops:008861416,Lonzée,50.551935,4.7201,,,1
stops:008861416:0,Lonzée,50.551935,4.7201,,stops:008861416,0
stops:008861416:1,Lonzée,50.551935,4.7201,1,stops:008861416,0
stops:008861416:2,Lonzée,50.551935,4.7201,2,stops:008861416,0
stops:008861424,Beuzet,50.534208,4.748533,,,1
stops:008861424:0,Beuzet,50.534208,4.748533,,stops:008861424,0
stops:008861424:1,Beuzet,50.534208,4.748533,1,stops:008861424,0
stops:008861424:2,Beuzet,50.534208,4.748533,2,stops:008861424,0
stops:008861432,Saint-Denis-Bovesse,50.5213,4.767788,,,1
stops:008861432:0,Saint-Denis-Bovesse,50.5213,4.767788,,stops:008861432,0
stops:008861432:1,Saint-Denis-Bovesse,50.5213,4.767788,1,stops:008861432,0
stops:008861432:2,Saint-Denis-Bovesse,50.5213,4.767788,2,stops:008861432,0
stops:008861440,Rhisnes,50.499348,4.801866,,,1
stops:008861440:0,Rhisnes,50.499348,4.801866,,stops:008861440,0
stops:008861440:1,Rhisnes,50.499348,4.801866,1,stops:008861440,0
stops:008861440:2,Rhisnes,50.499348,4.801866,2,stops:008861440,0
stops:008861515,Ernage,50.590823,4.668538,,,1
stops:008861515:0,Ernage,50.590823,4.668538,,stops:008861515,0
stops:008861515:1,Ernage,50.590823,4.668538,1,stops:008861515,0
stops:008861515:2,Ernage,50.590823,4.668538,2,stops:008861515,0
stops:008861523,Chastre,50.608819,4.648888,,,1
stops:008861523:0,Chastre,50.608819,4.648888,,stops:008861523,0
stops:008861523:1,Chastre,50.608819,4.648888,1,stops:008861523,0
stops:008861523:2,Chastre,50.608819,4.648888,2,stops:008861523,0
stops:008861531,Blanmont,50.619453,4.636393,,,1
stops:008861531:0,Blanmont,50.619453,4.636393,,stops:008861531,0
stops:008861531:1,Blanmont,50.619453,4.636393,1,stops:008861531,0
stops:008861531:2,Blanmont,50.619453,4.636393,2,stops:008861531,0
stops:008861549,Mont-Saint-Guibert,50.637611,4.613884,,,1
stops:008861549:0,Mont-Saint-Guibert,50.637611,4.613884,,stops:008861549,0
stops:008861549:1,Mont-Saint-Guibert,50.637611,4.613884,1,stops:008861549,0
stops:008861549:2,Mont-Saint-Guibert,50.637611,4.613884,2,stops:008861549,0
stops:008862018,Stockem,49.690939,5.769115,,,1
stops:008862018:0,Stockem,49.690939,5.769115,,stops:008862018,0
stops:008862018:1,Stockem,49.690939,5.769115,1,stops:008862018,0
stops:008862018:2,Stockem,49.690939,5.769115,2,stops:008862018,0
stops:008863008,Namur,50.468794,4.86222,,,1
stops:008863008:0,Namur,50.468794,4.86222,,stops:008863008,0
stops:008863008:1,Namur,50.468794,4.86222,1,stops:008863008,0
stops:008863008:2,Namur,50.468794,4.86222,2,stops:008863008,0
stops:008863008:3,Namur,50.468794,4.86222,3,stops:008863008,0
stops:008863008:4,Namur,50.468794,4.86222,4,stops:008863008,0
stops:008863008:5,Namur,50.468794,4.86222,5,stops:008863008,0
stops:008863008:6,Namur,50.468794,4.86222,6,stops:008863008,0
stops:008863008:7,Namur,50.468794,4.86222,7,stops:008863008,0
stops:008863008:8,Namur,50.468794,4.86222,8,stops:008863008,0
stops:008863008:9,Namur,50.468794,4.86222,9,stops:008863008,0
stops:008863008:10,Namur,50.468794,4.86222,10,stops:008863008,0
stops:008863008:11,Namur,50.468794,4.86222,11,stops:008863008,0
stops:008863115,Jambes,50.454843,4.876144,,,1
stops:008863115:0,Jambes,50.454843,4.876144,,stops:008863115,0
stops:008863115:1,Jambes,50.454843,4.876144,1,stops:008863115,0
stops:008863115:2,Jambes,50.454843,4.876144,2,stops:008863115,0
stops:008863115:3,Jambes,50.454843,4.876144,3,stops:008863115,0
stops:008863156,Lustin,50.391559,4.877241,,,1
stops:008863156:0,Lustin,50.391559,4.877241,,stops:008863156,0
stops:008863156:1,Lustin,50.391559,4.877241,1,stops:008863156,0
stops:008863156:2,Lustin,50.391559,4.877241,2,stops:008863156,0
stops:008863354,Jambes-Est,50.454798,4.880261,,,1
stops:008863354:0,Jambes-Est,50.454798,4.880261,,stops:008863354,0
stops:008863354:1,Jambes-Est,50.454798,4.880261,1,stops:008863354,0
stops:008863354:2,Jambes-Est,50.454798,4.880261,2,stops:008863354,0
stops:008863354:3,Jambes-Est,50.454798,4.880261,3,stops:008863354,0
stops:008863362,Dave-Saint-Martin,50.429098,4.884414,,,1
stops:008863362:0,Dave-Saint-Martin,50.429098,4.884414,,stops:008863362,0
stops:008863362:1,Dave-Saint-Martin,50.429098,4.884414,1,stops:008863362,0
stops:008863362:2,Dave-Saint-Martin,50.429098,4.884414,2,stops:008863362,0
stops:008863404,Andenne,50.496759,5.094699,,,1
stops:008863404:0,Andenne,50.496759,5.094699,,stops:008863404,0
stops:008863404:1,Andenne,50.496759,5.094699,1,stops:008863404,0
stops:008863404:2,Andenne,50.496759,5.094699,2,stops:008863404,0
stops:008863438,Château-de-Seilles,50.497209,5.081745,,,1
stops:008863438:0,Château-de-Seilles,50.497209,5.081745,,stops:008863438,0
stops:008863438:1,Château-de-Seilles,50.497209,5.081745,1,stops:008863438,0
stops:008863438:2,Château-de-Seilles,50.497209,5.081745,2,stops:008863438,0
stops:008863446,Sclaigneaux,50.492247,5.026363,,,1
stops:008863446:0,Sclaigneaux,50.492247,5.026363,,stops:008863446,0
stops:008863446:1,Sclaigneaux,50.492247,5.026363,1,stops:008863446,0
stops:008863446:2,Sclaigneaux,50.492247,5.026363,2,stops:008863446,0
stops:008863453,Namêche,50.47043,4.997939,,,1
stops:008863453:0,Namêche,50.47043,4.997939,,stops:008863453,0
stops:008863453:1,Namêche,50.47043,4.997939,1,stops:008863453,0
stops:008863453:2,Namêche,50.47043,4.997939,2,stops:008863453,0
stops:008863461,Marche-les-Dames,50.480741,4.96458,,,1
stops:008863461:0,Marche-les-Dames,50.480741,4.96458,,stops:008863461,0
stops:008863461:1,Marche-les-Dames,50.480741,4.96458,1,stops:008863461,0
stops:008863461:2,Marche-les-Dames,50.480741,4.96458,2,stops:008863461,0
stops:008863503,Dinant,50.260721,4.908182,,,1
stops:008863503:0,Dinant,50.260721,4.908182,,stops:008863503,0
stops:008863503:1,Dinant,50.260721,4.908182,1,stops:008863503,0
stops:008863503:2,Dinant,50.260721,4.908182,2,stops:008863503,0
stops:008863503:3,Dinant,50.260721,4.908182,3,stops:008863503,0
stops:008863545,Yvoir,50.32084,4.878643,,,1
stops:008863545:0,Yvoir,50.32084,4.878643,,stops:008863545,0
stops:008863545:1,Yvoir,50.32084,4.878643,1,stops:008863545,0
stops:008863545:2,Yvoir,50.32084,4.878643,2,stops:008863545,0
stops:008863560,Godinne,50.348914,4.86996,,,1
stops:008863560:0,Godinne,50.348914,4.86996,,stops:008863560,0
stops:008863560:1,Godinne,50.348914,4.86996,1,stops:008863560,0
stops:008863560:2,Godinne,50.348914,4.86996,2,stops:008863560,0
stops:008863818,Anseremme,50.238023,4.90553,,,1
stops:008863818:0,Anseremme,50.238023,4.90553,,stops:008863818,0
stops:008863818:1,Anseremme,50.238023,4.90553,1,stops:008863818,0
stops:008863818:2,Anseremme,50.238023,4.90553,2,stops:008863818,0
stops:008863834,Gendron-Celles,50.211235,4.964607,,,1
stops:008863834:0,Gendron-Celles,50.211235,4.964607,,stops:008863834,0
stops:008863834:1,Gendron-Celles,50.211235,4.964607,1,stops:008863834,0
stops:008863834:2,Gendron-Celles,50.211235,4.964607,2,stops:008863834,0
stops:008863842,Houyet,50.189868,5.006074,,,1
stops:008863842:0,Houyet,50.189868,5.006074,,stops:008863842,0
stops:008863842:1,Houyet,50.189868,5.006074,1,stops:008863842,0
stops:008863842:2,Houyet,50.189868,5.006074,2,stops:008863842,0
stops:008863842:3,Houyet,50.189868,5.006074,3,stops:008863842,0
stops:008863867,Beauraing,50.11443,4.95684,,,1
stops:008863867:0,Beauraing,50.11443,4.95684,,stops:008863867,0
stops:008863867:1,Beauraing,50.11443,4.95684,1,stops:008863867,0
stops:008863867:2,Beauraing,50.11443,4.95684,2,stops:008863867,0
stops:008864006,Jemelle,50.160401,5.266698,,,1
stops:008864006:0,Jemelle,50.160401,5.266698,,stops:008864006,0
stops:008864006:1,Jemelle,50.160401,5.266698,1,stops:008864006,0
stops:008864006:2,Jemelle,50.160401,5.266698,2,stops:008864006,0
stops:008864006:3,Jemelle,50.160401,5.266698,3,stops:008864006,0
stops:008864006:4,Jemelle,50.160401,5.266698,4,stops:008864006,0
stops:008864006:5,Jemelle,50.160401,5.266698,5,stops:008864006,0
stops:008864006:6,Jemelle,50.160401,5.266698,6,stops:008864006,0
stops:008864311,Forrières,50.132759,5.276784,,,1
stops:008864311:0,Forrières,50.132759,5.276784,,stops:008864311,0
stops:008864311:1,Forrières,50.132759,5.276784,1,stops:008864311,0
stops:008864311:2,Forrières,50.132759,5.276784,2,stops:008864311,0
stops:008864337,Grupont,50.0906,5.280524,,,1
stops:008864337:0,Grupont,50.0906,5.280524,,stops:008864337,0
stops:008864337:1,Grupont,50.0906,5.280524,1,stops:008864337,0
stops:008864337:2,Grupont,50.0906,5.280524,2,stops:008864337,0
stops:008864345,Marloie,50.202821,5.313892,,,1
stops:008864345:0,Marloie,50.202821,5.313892,,stops:008864345,0
stops:008864345:1,Marloie,50.202821,5.313892,1,stops:008864345,0
stops:008864345:2,Marloie,50.202821,5.313892,2,stops:008864345,0
stops:008864345:3,Marloie,50.202821,5.313892,3,stops:008864345,0
stops:008864352,Aye,50.224135,5.301091,,,1
stops:008864352:0,Aye,50.224135,5.301091,,stops:008864352,0
stops:008864352:1,Aye,50.224135,5.301091,1,stops:008864352,0
stops:008864352:2,Aye,50.224135,5.301091,2,stops:008864352,0
stops:008864410,Marche-en-Famenne,50.222472,5.346289,,,1
stops:008864410:0,Marche-en-Famenne,50.222472,5.346289,,stops:008864410,0
stops:008864410:1,Marche-en-Famenne,50.222472,5.346289,1,stops:008864410,0
stops:008864436,Melreux-Hotton,50.28367,5.440136,,,1
stops:008864436:0,Melreux-Hotton,50.28367,5.440136,,stops:008864436,0
stops:008864436:1,Melreux-Hotton,50.28367,5.440136,1,stops:008864436,0
stops:008864451,Barvaux,50.349417,5.501542,,,1
stops:008864451:0,Barvaux,50.349417,5.501542,,stops:008864451,0
stops:008864451:1,Barvaux,50.349417,5.501542,1,stops:008864451,0
stops:008864469,Bomal,50.376798,5.519304,,,1
stops:008864469:0,Bomal,50.376798,5.519304,,stops:008864469,0
stops:008864469:1,Bomal,50.376798,5.519304,1,stops:008864469,0
stops:008864469:2,Bomal,50.376798,5.519304,2,stops:008864469,0
stops:008864501,Ciney,50.29105,5.091409,,,1
stops:008864501:0,Ciney,50.29105,5.091409,,stops:008864501,0
stops:008864501:1,Ciney,50.29105,5.091409,1,stops:008864501,0
stops:008864501:2,Ciney,50.29105,5.091409,2,stops:008864501,0
stops:008864501:3,Ciney,50.29105,5.091409,3,stops:008864501,0
stops:008864501:4,Ciney,50.29105,5.091409,4,stops:008864501,0
stops:008864816,Leignon,50.267768,5.107778,,,1
stops:008864816:0,Leignon,50.267768,5.107778,,stops:008864816,0
stops:008864816:1,Leignon,50.267768,5.107778,1,stops:008864816,0
stops:008864816:2,Leignon,50.267768,5.107778,2,stops:008864816,0
stops:008864824,Chapois,50.262366,5.124255,,,1
stops:008864824:0,Chapois,50.262366,5.124255,,stops:008864824,0
stops:008864824:1,Chapois,50.262366,5.124255,1,stops:008864824,0
stops:008864824:2,Chapois,50.262366,5.124255,2,stops:008864824,0
stops:008864832,Haversin,50.249044,5.194371,,,1
stops:008864832:0,Haversin,50.249044,5.194371,,stops:008864832,0
stops:008864832:1,Haversin,50.249044,5.194371,1,stops:008864832,0
stops:008864832:2,Haversin,50.249044,5.194371,2,stops:008864832,0
stops:008864915,Natoye,50.343296,5.06116,,,1
stops:008864915:0,Natoye,50.343296,5.06116,,stops:008864915,0
stops:008864923,Florée,50.357786,5.056099,,,1
stops:008864923:0,Florée,50.357786,5.056099,,stops:008864923,0
stops:008864931,Assesse,50.368133,5.022839,,,1
stops:008864931:0,Assesse,50.368133,5.022839,,stops:008864931,0
stops:008864931:1,Assesse,50.368133,5.022839,1,stops:008864931,0
stops:008864931:2,Assesse,50.368133,5.022839,2,stops:008864931,0
stops:008864931:3,Assesse,50.368133,5.022839,3,stops:008864931,0
stops:008864949,Courrière,50.387442,4.996051,,,1
stops:008864949:0,Courrière,50.387442,4.996051,,stops:008864949,0
stops:008864949:1,Courrière,50.387442,4.996051,1,stops:008864949,0
stops:008864956,Sart-Bernard,50.406373,4.949739,,,1
stops:008864956:0,Sart-Bernard,50.406373,4.949739,,stops:008864956,0
stops:008864956:1,Sart-Bernard,50.406373,4.949739,1,stops:008864956,0
stops:008864964,Naninne,50.419695,4.929756,,,1
stops:008864964:0,Naninne,50.419695,4.929756,,stops:008864964,0
stops:008864964:1,Naninne,50.419695,4.929756,1,stops:008864964,0
stops:008865003,Libramont,49.920434,5.37927,,,1
stops:008865003:0,Libramont,49.920434,5.37927,,stops:008865003,0
stops:008865003:1,Libramont,49.920434,5.37927,1,stops:008865003,0
stops:008865003:2,Libramont,49.920434,5.37927,2,stops:008865003,0
stops:008865003:3,Libramont,49.920434,5.37927,3,stops:008865003,0
stops:008865003:4,Libramont,49.920434,5.37927,4,stops:008865003,0
stops:008865003:5,Libramont,49.920434,5.37927,5,stops:008865003,0
stops:008865003:6,Libramont,49.920434,5.37927,6,stops:008865003,0
stops:008865110,Bastogne-Sud,49.999737,5.709858,,,1
stops:008865110:0,Bastogne-Sud,49.999737,5.709858,,stops:008865110,0
stops:008865128,Bastogne-Nord,50.006919,5.720744,,,1
stops:008865128:0,Bastogne-Nord,50.006919,5.720744,,stops:008865128,0
stops:008865227,Poix-Saint-Hubert,50.019504,5.292641,,,1
stops:008865227:0,Poix-Saint-Hubert,50.019504,5.292641,,stops:008865227,0
stops:008865227:1,Poix-Saint-Hubert,50.019504,5.292641,1,stops:008865227,0
stops:008865227:2,Poix-Saint-Hubert,50.019504,5.292641,2,stops:008865227,0
stops:008865300,Bertrix,49.852835,5.267193,,,1
stops:008865300:0,Bertrix,49.852835,5.267193,,stops:008865300,0
stops:008865300:1,Bertrix,49.852835,5.267193,1,stops:008865300,0
stops:008865300:2,Bertrix,49.852835,5.267193,2,stops:008865300,0
stops:008865300:3,Bertrix,49.852835,5.267193,3,stops:008865300,0
stops:008865540,Paliseul,49.895408,5.118349,,,1
stops:008865540:0,Paliseul,49.895408,5.118349,,stops:008865540,0
stops:008865540:1,Paliseul,49.895408,5.118349,1,stops:008865540,0
stops:008865540:2,Paliseul,49.895408,5.118349,2,stops:008865540,0
stops:008865565,Carlsbourg,49.905458,5.092784,,,1
stops:008865565:0,Carlsbourg,49.905458,5.092784,,stops:008865565,0
stops:008865565:1,Carlsbourg,49.905458,5.092784,1,stops:008865565,0
stops:008865565:2,Carlsbourg,49.905458,5.092784,2,stops:008865565,0
stops:008865615,Graide,49.934134,5.043047,,,1
stops:008865615:0,Graide,49.934134,5.043047,,stops:008865615,0
stops:008865615:1,Graide,49.934134,5.043047,1,stops:008865615,0
stops:008865615:2,Graide,49.934134,5.043047,2,stops:008865615,0
stops:008865649,Gedinne,49.984123,4.978073,,,1
stops:008865649:0,Gedinne,49.984123,4.978073,,stops:008865649,0
stops:008865649:1,Gedinne,49.984123,4.978073,1,stops:008865649,0
stops:008865649:2,Gedinne,49.984123,4.978073,2,stops:008865649,0
stops:008866001,Arlon,49.68053,5.809971,,,1
stops:008866001:0,Arlon,49.68053,5.809971,,stops:008866001,0
stops:008866001:1,Arlon,49.68053,5.809971,1,stops:008866001,0
stops:008866001:2,Arlon,49.68053,5.809971,2,stops:008866001,0
stops:008866001:3,Arlon,49.68053,5.809971,3,stops:008866001,0
stops:008866001:4,Arlon,49.68053,5.809971,4,stops:008866001,0
stops:008866001:5,Arlon,49.68053,5.809971,5,stops:008866001,0
stops:008866118,Viville,49.688243,5.786527,,,1
stops:008866118:0,Viville,49.688243,5.786527,,stops:008866118,0
stops:008866118:1,Viville,49.688243,5.786527,1,stops:008866118,0
stops:008866118:2,Viville,49.688243,5.786527,2,stops:008866118,0
stops:008866142,Habay,49.718249,5.632685,,,1
stops:008866142:0,Habay,49.718249,5.632685,,stops:008866142,0
stops:008866142:1,Habay,49.718249,5.632685,1,stops:008866142,0
stops:008866142:2,Habay,49.718249,5.632685,2,stops:008866142,0
stops:008866175,Marbehan,49.727337,5.539755,,,1
stops:008866175:0,Marbehan,49.727337,5.539755,,stops:008866175,0
stops:008866175:1,Marbehan,49.727337,5.539755,1,stops:008866175,0
stops:008866175:2,Marbehan,49.727337,5.539755,2,stops:008866175,0
stops:008866175:3,Marbehan,49.727337,5.539755,3,stops:008866175,0
stops:008866258,Neufchâteau,49.854318,5.452559,,,1
stops:008866258:0,Neufchâteau,49.854318,5.452559,,stops:008866258,0
stops:008866258:1,Neufchâteau,49.854318,5.452559,1,stops:008866258,0
stops:008866258:2,Neufchâteau,49.854318,5.452559,2,stops:008866258,0
stops:008866407,Virton,49.560821,5.519125,,,1
stops:008866407:0,Virton,49.560821,5.519125,,stops:008866407,0
stops:008866407:1,Virton,49.560821,5.519125,1,stops:008866407,0
stops:008866407:2,Virton,49.560821,5.519125,2,stops:008866407,0
stops:008866407:3,Virton,49.560821,5.519125,3,stops:008866407,0
stops:008866530,Halanzy,49.5562,5.741347,,,1
stops:008866530:0,Halanzy,49.5562,5.741347,,stops:008866530,0
stops:008866530:1,Halanzy,49.5562,5.741347,1,stops:008866530,0
stops:008866530:2,Halanzy,49.5562,5.741347,2,stops:008866530,0
stops:008866605,Athus,49.563346,5.828947,,,1
stops:008866605:0,Athus,49.563346,5.828947,,stops:008866605,0
stops:008866605:1,Athus,49.563346,5.828947,1,stops:008866605,0
stops:008866605:2,Athus,49.563346,5.828947,2,stops:008866605,0
stops:008866605:3,Athus,49.563346,5.828947,3,stops:008866605,0
stops:008866654,Aubange,49.564093,5.79806,,,1
stops:008866654:0,Aubange,49.564093,5.79806,,stops:008866654,0
stops:008866654:1,Aubange,49.564093,5.79806,1,stops:008866654,0
stops:008866654:2,Aubange,49.564093,5.79806,2,stops:008866654,0
stops:008866662,Messancy,49.592777,5.818915,,,1
stops:008866662:0,Messancy,49.592777,5.818915,,stops:008866662,0
stops:008866662:1,Messancy,49.592777,5.818915,1,stops:008866662,0
stops:008866845,Florenville,49.706967,5.331115,,,1
stops:008866845:0,Florenville,49.706967,5.331115,,stops:008866845,0
stops:008866845:1,Florenville,49.706967,5.331115,1,stops:008866845,0
stops:008866845:2,Florenville,49.706967,5.331115,2,stops:008866845,0
stops:008871100,Marchienne-au-Pont,50.412171,4.394223,,,1
stops:008871100:0,Marchienne-au-Pont,50.412171,4.394223,,stops:008871100,0
stops:008871100:1,Marchienne-au-Pont,50.412171,4.394223,1,stops:008871100,0
stops:008871100:2,Marchienne-au-Pont,50.412171,4.394223,2,stops:008871100,0
stops:008871100:3,Marchienne-au-Pont,50.412171,4.394223,3,stops:008871100,0
stops:008871100:4,Marchienne-au-Pont,50.412171,4.394223,4,stops:008871100,0
stops:008871175,Jamioulx,50.352896,4.411294,,,1
stops:008871175:0,Jamioulx,50.352896,4.411294,,stops:008871175,0
stops:008871175:1,Jamioulx,50.352896,4.411294,1,stops:008871175,0
stops:008871175:2,Jamioulx,50.352896,4.411294,2,stops:008871175,0
stops:008871183,Beignée,50.333893,4.406305,,,1
stops:008871183:0,Beignée,50.333893,4.406305,,stops:008871183,0
stops:008871183:1,Beignée,50.333893,4.406305,1,stops:008871183,0
stops:008871183:2,Beignée,50.333893,4.406305,2,stops:008871183,0
stops:008871217,Roux,50.443112,4.393199,,,1
stops:008871217:0,Roux,50.443112,4.393199,,stops:008871217,0
stops:008871217:1,Roux,50.443112,4.393199,1,stops:008871217,0
stops:008871217:2,Roux,50.443112,4.393199,2,stops:008871217,0
stops:008871217:3,Roux,50.443112,4.393199,3,stops:008871217,0
stops:008871217:4,Roux,50.443112,4.393199,4,stops:008871217,0
stops:008871225,Courcelles-Motte,50.462007,4.400534,,,1
stops:008871225:0,Courcelles-Motte,50.462007,4.400534,,stops:008871225,0
stops:008871225:1,Courcelles-Motte,50.462007,4.400534,1,stops:008871225,0
stops:008871225:2,Courcelles-Motte,50.462007,4.400534,2,stops:008871225,0
stops:008871225:3,Courcelles-Motte,50.462007,4.400534,3,stops:008871225,0
stops:008871225:4,Courcelles-Motte,50.462007,4.400534,4,stops:008871225,0
stops:008871308,Luttre,50.505856,4.38412,,,1
stops:008871308:0,Luttre,50.505856,4.38412,,stops:008871308,0
stops:008871308:1,Luttre,50.505856,4.38412,1,stops:008871308,0
stops:008871308:2,Luttre,50.505856,4.38412,2,stops:008871308,0
stops:008871308:3,Luttre,50.505856,4.38412,3,stops:008871308,0
stops:008871308:4,Luttre,50.505856,4.38412,4,stops:008871308,0
stops:008871308:5,Luttre,50.505856,4.38412,5,stops:008871308,0
stops:008871332,Obaix-Buzet,50.535206,4.36357,,,1
stops:008871332:0,Obaix-Buzet,50.535206,4.36357,,stops:008871332,0
stops:008871332:1,Obaix-Buzet,50.535206,4.36357,1,stops:008871332,0
stops:008871332:2,Obaix-Buzet,50.535206,4.36357,2,stops:008871332,0
stops:008871365,Pont-à-Celles,50.513812,4.355291,,,1
stops:008871365:0,Pont-à-Celles,50.513812,4.355291,,stops:008871365,0
stops:008871365:1,Pont-à-Celles,50.513812,4.355291,1,stops:008871365,0
stops:008871365:2,Pont-à-Celles,50.513812,4.355291,2,stops:008871365,0
stops:008871373,Gouy-lez-Pieton,50.497065,4.325123,,,1
stops:008871373:0,Gouy-lez-Pieton,50.497065,4.325123,,stops:008871373,0
stops:008871373:1,Gouy-lez-Pieton,50.497065,4.325123,1,stops:008871373,0
stops:008871373:2,Gouy-lez-Pieton,50.497065,4.325123,2,stops:008871373,0
stops:008871381,Godarville,50.492795,4.290308,,,1
stops:008871381:0,Godarville,50.492795,4.290308,,stops:008871381,0
stops:008871381:1,Godarville,50.492795,4.290308,1,stops:008871381,0
stops:008871381:2,Godarville,50.492795,4.290308,2,stops:008871381,0
stops:008871415,Piéton,50.434959,4.288438,,,1
stops:008871415:0,Piéton,50.434959,4.288438,,stops:008871415,0
stops:008871415:1,Piéton,50.434959,4.288438,1,stops:008871415,0
stops:008871415:2,Piéton,50.434959,4.288438,2,stops:008871415,0
stops:008871415:3,Piéton,50.434959,4.288438,3,stops:008871415,0
stops:008871514,Forchies,50.433314,4.325384,,,1
stops:008871514:0,Forchies,50.433314,4.325384,,stops:008871514,0
stops:008871514:1,Forchies,50.433314,4.325384,1,stops:008871514,0
stops:008871514:2,Forchies,50.433314,4.325384,2,stops:008871514,0
stops:008871605,Erquelinnes,50.304192,4.113562,,,1
stops:008871605:0,Erquelinnes,50.304192,4.113562,,stops:008871605,0
stops:008871605:1,Erquelinnes,50.304192,4.113562,1,stops:008871605,0
stops:008871647,Erquelinnes-Village,50.310179,4.132314,,,1
stops:008871647:0,Erquelinnes-Village,50.310179,4.132314,,stops:008871647,0
stops:008871647:1,Erquelinnes-Village,50.310179,4.132314,1,stops:008871647,0
stops:008871647:2,Erquelinnes-Village,50.310179,4.132314,2,stops:008871647,0
stops:008871662,Solre-sur-Sambre,50.312642,4.158427,,,1
stops:008871662:0,Solre-sur-Sambre,50.312642,4.158427,,stops:008871662,0
stops:008871662:1,Solre-sur-Sambre,50.312642,4.158427,1,stops:008871662,0
stops:008871662:2,Solre-sur-Sambre,50.312642,4.158427,2,stops:008871662,0
stops:008871670,Labuissière,50.316328,4.186833,,,1
stops:008871670:0,Labuissière,50.316328,4.186833,,stops:008871670,0
stops:008871670:1,Labuissière,50.316328,4.186833,1,stops:008871670,0
stops:008871670:2,Labuissière,50.316328,4.186833,2,stops:008871670,0
stops:008871688,Fontaine-Valmont,50.321164,4.212785,,,1
stops:008871688:0,Fontaine-Valmont,50.321164,4.212785,,stops:008871688,0
stops:008871688:1,Fontaine-Valmont,50.321164,4.212785,1,stops:008871688,0
stops:008871688:2,Fontaine-Valmont,50.321164,4.212785,2,stops:008871688,0
stops:008871712,Lobbes,50.346469,4.260958,,,1
stops:008871712:0,Lobbes,50.346469,4.260958,,stops:008871712,0
stops:008871712:1,Lobbes,50.346469,4.260958,1,stops:008871712,0
stops:008871712:2,Lobbes,50.346469,4.260958,2,stops:008871712,0
stops:008871811,Thuin,50.342738,4.288906,,,1
stops:008871811:0,Thuin,50.342738,4.288906,,stops:008871811,0
stops:008871811:1,Thuin,50.342738,4.288906,1,stops:008871811,0
stops:008871811:2,Thuin,50.342738,4.288906,2,stops:008871811,0
stops:008871829,Hourpes,50.363692,4.308736,,,1
stops:008871829:0,Hourpes,50.363692,4.308736,,stops:008871829,0
stops:008871829:1,Hourpes,50.363692,4.308736,1,stops:008871829,0
stops:008871829:2,Hourpes,50.363692,4.308736,2,stops:008871829,0
stops:008871837,Landelies,50.377311,4.350976,,,1
stops:008871837:0,Landelies,50.377311,4.350976,,stops:008871837,0
stops:008871837:1,Landelies,50.377311,4.350976,1,stops:008871837,0
stops:008871837:2,Landelies,50.377311,4.350976,2,stops:008871837,0
stops:008871852,Marchienne-Zone,50.397465,4.388767,,,1
stops:008871852:0,Marchienne-Zone,50.397465,4.388767,,stops:008871852,0
stops:008871852:1,Marchienne-Zone,50.397465,4.388767,1,stops:008871852,0
stops:008871852:2,Marchienne-Zone,50.397465,4.388767,2,stops:008871852,0
stops:008872009,Charleroi-Sud,50.40471,4.438567,,,1
stops:008872009:0,Charleroi-Sud,50.40471,4.438567,,stops:008872009,0
stops:008872009:1,Charleroi-Sud,50.40471,4.438567,1,stops:008872009,0
stops:008872009:2,Charleroi-Sud,50.40471,4.438567,2,stops:008872009,0
stops:008872009:3,Charleroi-Sud,50.40471,4.438567,3,stops:008872009,0
stops:008872009:4,Charleroi-Sud,50.40471,4.438567,4,stops:008872009,0
stops:008872009:5,Charleroi-Sud,50.40471,4.438567,5,stops:008872009,0
stops:008872009:6,Charleroi-Sud,50.40471,4.438567,6,stops:008872009,0
stops:008872009:7,Charleroi-Sud,50.40471,4.438567,7,stops:008872009,0
stops:008872009:8,Charleroi-Sud,50.40471,4.438567,8,stops:008872009,0
stops:008872009:9,Charleroi-Sud,50.40471,4.438567,9,stops:008872009,0
stops:008872009:10,Charleroi-Sud,50.40471,4.438567,10,stops:008872009,0
stops:008872009:11,Charleroi-Sud,50.40471,4.438567,11,stops:008872009,0
stops:008872009:12,Charleroi-Sud,50.40471,4.438567,12,stops:008872009,0
stops:008872066,Charleroi-Ouest,50.410948,4.436653,,,1
stops:008872066:0,Charleroi-Ouest,50.410948,4.436653,,stops:008872066,0
stops:008872066:1,Charleroi-Ouest,50.410948,4.436653,1,stops:008872066,0
stops:008872066:2,Charleroi-Ouest,50.410948,4.436653,2,stops:008872066,0
stops:008872306,Lodelinsart,50.432451,4.462946,,,1
stops:008872306:0,Lodelinsart,50.432451,4.462946,,stops:008872306,0
stops:008872306:1,Lodelinsart,50.432451,4.462946,1,stops:008872306,0
stops:008872306:2,Lodelinsart,50.432451,4.462946,2,stops:008872306,0
stops:008872413,Fleurus,50.481927,4.543741,,,1
stops:008872413:0,Fleurus,50.481927,4.543741,,stops:008872413,0
stops:008872413:1,Fleurus,50.481927,4.543741,1,stops:008872413,0
stops:008872413:2,Fleurus,50.481927,4.543741,2,stops:008872413,0
stops:008872520,Ligny,50.511726,4.566133,,,1
stops:008872520:0,Ligny,50.511726,4.566133,,stops:008872520,0
stops:008872520:1,Ligny,50.511726,4.566133,1,stops:008872520,0
stops:008872520:2,Ligny,50.511726,4.566133,2,stops:008872520,0
stops:008872553,Tilly,50.558084,4.552676,,,1
stops:008872553:0,Tilly,50.558084,4.552676,,stops:008872553,0
stops:008872553:1,Tilly,50.558084,4.552676,1,stops:008872553,0
stops:008872553:2,Tilly,50.558084,4.552676,2,stops:008872553,0
stops:008872579,Villers-la-Ville,50.578103,4.533349,,,1
stops:008872579:0,Villers-la-Ville,50.578103,4.533349,,stops:008872579,0
stops:008872579:1,Villers-la-Ville,50.578103,4.533349,1,stops:008872579,0
stops:008872579:2,Villers-la-Ville,50.578103,4.533349,2,stops:008872579,0
stops:008872587,La Roche (Brabant),50.610338,4.539157,,,1
stops:008872587:0,La Roche (Brabant),50.610338,4.539157,,stops:008872587,0
stops:008872587:1,La Roche (Brabant),50.610338,4.539157,1,stops:008872587,0
stops:008872587:2,La Roche (Brabant),50.610338,4.539157,2,stops:008872587,0
stops:008872611,Faux,50.621826,4.54926,,,1
stops:008872611:0,Faux,50.621826,4.54926,,stops:008872611,0
stops:008872611:1,Faux,50.621826,4.54926,1,stops:008872611,0
stops:008872611:2,Faux,50.621826,4.54926,2,stops:008872611,0
stops:008873007,Walcourt,50.259219,4.435879,,,1
stops:008873007:0,Walcourt,50.259219,4.435879,,stops:008873007,0
stops:008873007:1,Walcourt,50.259219,4.435879,1,stops:008873007,0
stops:008873007:2,Walcourt,50.259219,4.435879,2,stops:008873007,0
stops:008873007:3,Walcourt,50.259219,4.435879,3,stops:008873007,0
stops:008873122,Philippeville,50.191639,4.535956,,,1
stops:008873122:0,Philippeville,50.191639,4.535956,,stops:008873122,0
stops:008873239,Yves-Gomezée,50.237133,4.492709,,,1
stops:008873239:0,Yves-Gomezée,50.237133,4.492709,,stops:008873239,0
stops:008873239:1,Yves-Gomezée,50.237133,4.492709,1,stops:008873239,0
stops:008873312,Pry,50.269278,4.428805,,,1
stops:008873312:0,Pry,50.269278,4.428805,,stops:008873312,0
stops:008873312:1,Pry,50.269278,4.428805,1,stops:008873312,0
stops:008873312:2,Pry,50.269278,4.428805,2,stops:008873312,0
stops:008873320,Berzée,50.285603,4.405909,,,1
stops:008873320:0,Berzée,50.285603,4.405909,,stops:008873320,0
stops:008873320:1,Berzée,50.285603,4.405909,1,stops:008873320,0
stops:008873320:2,Berzée,50.285603,4.405909,2,stops:008873320,0
stops:008873379,Cour-sur-Heure,50.300138,4.391491,,,1
stops:008873379:0,Cour-sur-Heure,50.300138,4.391491,,stops:008873379,0
stops:008873379:1,Cour-sur-Heure,50.300138,4.391491,1,stops:008873379,0
stops:008873379:2,Cour-sur-Heure,50.300138,4.391491,2,stops:008873379,0
stops:008873387,Ham-sur-Heure,50.319555,4.404696,,,1
stops:008873387:0,Ham-sur-Heure,50.319555,4.404696,,stops:008873387,0
stops:008873387:1,Ham-sur-Heure,50.319555,4.404696,1,stops:008873387,0
stops:008873387:2,Ham-sur-Heure,50.319555,4.404696,2,stops:008873387,0
stops:008874005,Châtelet,50.410103,4.521861,,,1
stops:008874005:0,Châtelet,50.410103,4.521861,,stops:008874005,0
stops:008874005:1,Châtelet,50.410103,4.521861,1,stops:008874005,0
stops:008874005:2,Châtelet,50.410103,4.521861,2,stops:008874005,0
stops:008874005:3,Châtelet,50.410103,4.521861,3,stops:008874005,0
stops:008874005:4,Châtelet,50.410103,4.521861,4,stops:008874005,0
stops:008874054,Couillet,50.392718,4.46851,,,1
stops:008874054:0,Couillet,50.392718,4.46851,,stops:008874054,0
stops:008874054:1,Couillet,50.392718,4.46851,1,stops:008874054,0
stops:008874054:2,Couillet,50.392718,4.46851,2,stops:008874054,0
stops:008874054:3,Couillet,50.392718,4.46851,3,stops:008874054,0
stops:008874054:4,Couillet,50.392718,4.46851,4,stops:008874054,0
stops:008874559,Le Campinaire,50.428936,4.552586,,,1
stops:008874559:0,Le Campinaire,50.428936,4.552586,,stops:008874559,0
stops:008874559:1,Le Campinaire,50.428936,4.552586,1,stops:008874559,0
stops:008874559:2,Le Campinaire,50.428936,4.552586,2,stops:008874559,0
stops:008874567,Farciennes,50.435246,4.564138,,,1
stops:008874567:0,Farciennes,50.435246,4.564138,,stops:008874567,0
stops:008874567:1,Farciennes,50.435246,4.564138,1,stops:008874567,0
stops:008874567:2,Farciennes,50.435246,4.564138,2,stops:008874567,0
stops:008874583,Aiseau,50.429529,4.584552,,,1
stops:008874583:0,Aiseau,50.429529,4.584552,,stops:008874583,0
stops:008874583:1,Aiseau,50.429529,4.584552,1,stops:008874583,0
stops:008874583:2,Aiseau,50.429529,4.584552,2,stops:008874583,0
stops:008874609,Tamines,50.432235,4.608823,,,1
stops:008874609:0,Tamines,50.432235,4.608823,,stops:008874609,0
stops:008874609:1,Tamines,50.432235,4.608823,1,stops:008874609,0
stops:008874609:2,Tamines,50.432235,4.608823,2,stops:008874609,0
stops:008874609:3,Tamines,50.432235,4.608823,3,stops:008874609,0
stops:008874716,Auvelais,50.449197,4.630532,,,1
stops:008874716:0,Auvelais,50.449197,4.630532,,stops:008874716,0
stops:008874716:1,Auvelais,50.449197,4.630532,1,stops:008874716,0
stops:008874716:2,Auvelais,50.449197,4.630532,2,stops:008874716,0
stops:008874724,Jemeppe-sur-Sambre,50.45095,4.662632,,,1
stops:008874724:0,Jemeppe-sur-Sambre,50.45095,4.662632,,stops:008874724,0
stops:008874724:1,Jemeppe-sur-Sambre,50.45095,4.662632,1,stops:008874724,0
stops:008874724:2,Jemeppe-sur-Sambre,50.45095,4.662632,2,stops:008874724,0
stops:008874724:3,Jemeppe-sur-Sambre,50.45095,4.662632,3,stops:008874724,0
stops:008874724:4,Jemeppe-sur-Sambre,50.45095,4.662632,4,stops:008874724,0
stops:008875002,Mariembourg,50.09549,4.525691,,,1
stops:008875002:0,Mariembourg,50.09549,4.525691,,stops:008875002,0
stops:008875002:1,Mariembourg,50.09549,4.525691,1,stops:008875002,0
stops:008875002:2,Mariembourg,50.09549,4.525691,2,stops:008875002,0
stops:008875127,Couvin,50.056324,4.491702,,,1
stops:008875127:0,Couvin,50.056324,4.491702,,stops:008875127,0
stops:008875127:1,Couvin,50.056324,4.491702,1,stops:008875127,0
stops:008881000,Mons,50.453854,3.942542,,,1
stops:008881000:0,Mons,50.453854,3.942542,,stops:008881000,0
stops:008881000:1,Mons,50.453854,3.942542,1,stops:008881000,0
stops:008881000:2,Mons,50.453854,3.942542,2,stops:008881000,0
stops:008881000:3,Mons,50.453854,3.942542,3,stops:008881000,0
stops:008881000:4,Mons,50.453854,3.942542,4,stops:008881000,0
stops:008881000:5,Mons,50.453854,3.942542,5,stops:008881000,0
stops:008881000:6,Mons,50.453854,3.942542,6,stops:008881000,0
stops:008881000:7,Mons,50.453854,3.942542,7,stops:008881000,0
stops:008881125,Ghlin,50.487411,3.906343,,,1
stops:008881125:0,Ghlin,50.487411,3.906343,,stops:008881125,0
stops:008881125:1,Ghlin,50.487411,3.906343,1,stops:008881125,0
stops:008881125:2,Ghlin,50.487411,3.906343,2,stops:008881125,0
stops:008881158,Erbisœul,50.507025,3.887987,,,1
stops:008881158:0,Erbisœul,50.507025,3.887987,,stops:008881158,0
stops:008881158:1,Erbisœul,50.507025,3.887987,1,stops:008881158,0
stops:008881158:2,Erbisœul,50.507025,3.887987,2,stops:008881158,0
stops:008881166,Jurbeke,50.530496,3.910694,,,1
stops:008881166:0,Jurbeke,50.530496,3.910694,,stops:008881166,0
stops:008881166:1,Jurbeke,50.530496,3.910694,1,stops:008881166,0
stops:008881166:2,Jurbeke,50.530496,3.910694,2,stops:008881166,0
stops:008881166:3,Jurbeke,50.530496,3.910694,3,stops:008881166,0
stops:008881166:4,Jurbeke,50.530496,3.910694,4,stops:008881166,0
stops:008881174,Masnuy-Saint-Pierre,50.536546,3.962139,,,1
stops:008881174:0,Masnuy-Saint-Pierre,50.536546,3.962139,,stops:008881174,0
stops:008881174:1,Masnuy-Saint-Pierre,50.536546,3.962139,1,stops:008881174,0
stops:008881174:2,Masnuy-Saint-Pierre,50.536546,3.962139,2,stops:008881174,0
stops:008881190,Lens,50.559342,3.903224,,,1
stops:008881190:0,Lens,50.559342,3.903224,,stops:008881190,0
stops:008881190:1,Lens,50.559342,3.903224,1,stops:008881190,0
stops:008881190:2,Lens,50.559342,3.903224,2,stops:008881190,0
stops:008881315,Nimy,50.471644,3.956089,,,1
stops:008881315:0,Nimy,50.471644,3.956089,,stops:008881315,0
stops:008881315:1,Nimy,50.471644,3.956089,1,stops:008881315,0
stops:008881315:2,Nimy,50.471644,3.956089,2,stops:008881315,0
stops:008881406,Obourg,50.469873,4.007804,,,1
stops:008881406:0,Obourg,50.469873,4.007804,,stops:008881406,0
stops:008881406:1,Obourg,50.469873,4.007804,1,stops:008881406,0
stops:008881406:2,Obourg,50.469873,4.007804,2,stops:008881406,0
stops:008881430,Havre,50.470754,4.059987,,,1
stops:008881430:0,Havre,50.470754,4.059987,,stops:008881430,0
stops:008881430:1,Havre,50.470754,4.059987,1,stops:008881430,0
stops:008881430:2,Havre,50.470754,4.059987,2,stops:008881430,0
stops:008881455,Thieu,50.46954,4.098523,,,1
stops:008881455:0,Thieu,50.46954,4.098523,,stops:008881455,0
stops:008881455:1,Thieu,50.46954,4.098523,1,stops:008881455,0
stops:008881455:2,Thieu,50.46954,4.098523,2,stops:008881455,0
stops:008881463,Bracquegnies,50.474457,4.126345,,,1
stops:008881463:0,Bracquegnies,50.474457,4.126345,,stops:008881463,0
stops:008881463:1,Bracquegnies,50.474457,4.126345,1,stops:008881463,0
stops:008881463:2,Bracquegnies,50.474457,4.126345,2,stops:008881463,0
stops:008881505,Quevy,50.341534,3.909489,,,1
stops:008881505:0,Quevy,50.341534,3.909489,,stops:008881505,0
stops:008881505:1,Quevy,50.341534,3.909489,1,stops:008881505,0
stops:008881562,Genly,50.390642,3.911638,,,1
stops:008881562:0,Genly,50.390642,3.911638,,stops:008881562,0
stops:008881562:1,Genly,50.390642,3.911638,1,stops:008881562,0
stops:008881562:2,Genly,50.390642,3.911638,2,stops:008881562,0
stops:008881570,Frameries,50.405932,3.906586,,,1
stops:008881570:0,Frameries,50.405932,3.906586,,stops:008881570,0
stops:008881570:1,Frameries,50.405932,3.906586,1,stops:008881570,0
stops:008881570:2,Frameries,50.405932,3.906586,2,stops:008881570,0
stops:008882107,La Louvière-Centre,50.478161,4.179858,,,1
stops:008882107:0,La Louvière-Centre,50.478161,4.179858,,stops:008882107,0
stops:008882107:1,La Louvière-Centre,50.478161,4.179858,1,stops:008882107,0
stops:008882107:2,La Louvière-Centre,50.478161,4.179858,2,stops:008882107,0
stops:008882107:3,La Louvière-Centre,50.478161,4.179858,3,stops:008882107,0
stops:008882206,La Louvière-Sud,50.464974,4.190609,,,1
stops:008882206:0,La Louvière-Sud,50.464974,4.190609,,stops:008882206,0
stops:008882206:1,La Louvière-Sud,50.464974,4.190609,1,stops:008882206,0
stops:008882206:2,La Louvière-Sud,50.464974,4.190609,2,stops:008882206,0
stops:008882206:3,La Louvière-Sud,50.464974,4.190609,3,stops:008882206,0
stops:008882206:4,La Louvière-Sud,50.464974,4.190609,4,stops:008882206,0
stops:008882230,Morlanwelz,50.457998,4.247367,,,1
stops:008882230:0,Morlanwelz,50.457998,4.247367,,stops:008882230,0
stops:008882230:1,Morlanwelz,50.457998,4.247367,1,stops:008882230,0
stops:008882230:2,Morlanwelz,50.457998,4.247367,2,stops:008882230,0
stops:008882248,Carnieres,50.447957,4.263826,,,1
stops:008882248:0,Carnieres,50.447957,4.263826,,stops:008882248,0
stops:008882248:1,Carnieres,50.447957,4.263826,1,stops:008882248,0
stops:008882248:2,Carnieres,50.447957,4.263826,2,stops:008882248,0
stops:008882339,Leval,50.430797,4.211041,,,1
stops:008882339:0,Leval,50.430797,4.211041,,stops:008882339,0
stops:008882339:1,Leval,50.430797,4.211041,1,stops:008882339,0
stops:008882362,Binche,50.408764,4.172451,,,1
stops:008882362:0,Binche,50.408764,4.172451,,stops:008882362,0
stops:008882362:1,Binche,50.408764,4.172451,1,stops:008882362,0
stops:008882362:2,Binche,50.408764,4.172451,2,stops:008882362,0
stops:008882362:3,Binche,50.408764,4.172451,3,stops:008882362,0
stops:008882701,Manage,50.506108,4.234683,,,1
stops:008882701:0,Manage,50.506108,4.234683,,stops:008882701,0
stops:008882701:1,Manage,50.506108,4.234683,1,stops:008882701,0
stops:008882701:2,Manage,50.506108,4.234683,2,stops:008882701,0
stops:008882701:3,Manage,50.506108,4.234683,3,stops:008882701,0
stops:008883006,Braine-le-Comte,50.605079,4.137662,,,1
stops:008883006:0,Braine-le-Comte,50.605079,4.137662,,stops:008883006,0
stops:008883006:1,Braine-le-Comte,50.605079,4.137662,1,stops:008883006,0
stops:008883006:2,Braine-le-Comte,50.605079,4.137662,2,stops:008883006,0
stops:008883006:3,Braine-le-Comte,50.605079,4.137662,3,stops:008883006,0
stops:008883006:4,Braine-le-Comte,50.605079,4.137662,4,stops:008883006,0
stops:008883006:5,Braine-le-Comte,50.605079,4.137662,5,stops:008883006,0
stops:008883006:6,Braine-le-Comte,50.605079,4.137662,6,stops:008883006,0
stops:008883006:7,Braine-le-Comte,50.605079,4.137662,7,stops:008883006,0
stops:008883006:8,Braine-le-Comte,50.605079,4.137662,8,stops:008883006,0
stops:008883006:9,Braine-le-Comte,50.605079,4.137662,9,stops:008883006,0
stops:008883022,Hennuyères,50.651005,4.175893,,,1
stops:008883022:0,Hennuyères,50.651005,4.175893,,stops:008883022,0
stops:008883022:1,Hennuyères,50.651005,4.175893,1,stops:008883022,0
stops:008883022:2,Hennuyères,50.651005,4.175893,2,stops:008883022,0
stops:008883113,Soignies,50.572763,4.067519,,,1
stops:008883113:0,Soignies,50.572763,4.067519,,stops:008883113,0
stops:008883113:1,Soignies,50.572763,4.067519,1,stops:008883113,0
stops:008883113:2,Soignies,50.572763,4.067519,2,stops:008883113,0
stops:008883121,Neufvilles,50.543602,4.010672,,,1
stops:008883121:0,Neufvilles,50.543602,4.010672,,stops:008883121,0
stops:008883121:1,Neufvilles,50.543602,4.010672,1,stops:008883121,0
stops:008883121:2,Neufvilles,50.543602,4.010672,2,stops:008883121,0
stops:008883212,Écaussinnes,50.56239,4.156639,,,1
stops:008883212:0,Écaussinnes,50.56239,4.156639,,stops:008883212,0
stops:008883212:1,Écaussinnes,50.56239,4.156639,1,stops:008883212,0
stops:008883212:2,Écaussinnes,50.56239,4.156639,2,stops:008883212,0
stops:008883212:3,Écaussinnes,50.56239,4.156639,3,stops:008883212,0
stops:008883220,Marche-lez-Écaussinnes,50.546173,4.177098,,,1
stops:008883220:0,Marche-lez-Écaussinnes,50.546173,4.177098,,stops:008883220,0
stops:008883220:1,Marche-lez-Écaussinnes,50.546173,4.177098,1,stops:008883220,0
stops:008883220:2,Marche-lez-Écaussinnes,50.546173,4.177098,2,stops:008883220,0
stops:008883238,Familleureux,50.519358,4.211581,,,1
stops:008883238:0,Familleureux,50.519358,4.211581,,stops:008883238,0
stops:008883238:1,Familleureux,50.519358,4.211581,1,stops:008883238,0
stops:008883238:2,Familleureux,50.519358,4.211581,2,stops:008883238,0
stops:008883311,Enghien,50.697273,4.047357,,,1
stops:008883311:0,Enghien,50.697273,4.047357,,stops:008883311,0
stops:008883311:1,Enghien,50.697273,4.047357,1,stops:008883311,0
stops:008883311:2,Enghien,50.697273,4.047357,2,stops:008883311,0
stops:008883311:3,Enghien,50.697273,4.047357,3,stops:008883311,0
stops:008883311:4,Enghien,50.697273,4.047357,4,stops:008883311,0
stops:008883311:5,Enghien,50.697273,4.047357,5,stops:008883311,0
stops:008883436,Silly,50.662386,3.935863,,,1
stops:008883436:0,Silly,50.662386,3.935863,,stops:008883436,0
stops:008883436:1,Silly,50.662386,3.935863,1,stops:008883436,0
stops:008883436:2,Silly,50.662386,3.935863,2,stops:008883436,0
stops:008883808,Tubize,50.691708,4.205729,,,1
stops:008883808:0,Tubize,50.691708,4.205729,,stops:008883808,0
stops:008883808:1,Tubize,50.691708,4.205729,1,stops:008883808,0
stops:008883808:2,Tubize,50.691708,4.205729,2,stops:008883808,0
stops:008884004,Saint-Ghislain,50.44286,3.820253,,,1
stops:008884004:0,Saint-Ghislain,50.44286,3.820253,,stops:008884004,0
stops:008884004:1,Saint-Ghislain,50.44286,3.820253,1,stops:008884004,0
stops:008884004:2,Saint-Ghislain,50.44286,3.820253,2,stops:008884004,0
stops:008884004:3,Saint-Ghislain,50.44286,3.820253,3,stops:008884004,0
stops:008884004:4,Saint-Ghislain,50.44286,3.820253,4,stops:008884004,0
stops:008884004:5,Saint-Ghislain,50.44286,3.820253,5,stops:008884004,0
stops:008884319,Boussu,50.436388,3.797025,,,1
stops:008884319:0,Boussu,50.436388,3.797025,,stops:008884319,0
stops:008884319:1,Boussu,50.436388,3.797025,1,stops:008884319,0
stops:008884327,Hainin,50.428019,3.766893,,,1
stops:008884327:0,Hainin,50.428019,3.766893,,stops:008884327,0
stops:008884327:1,Hainin,50.428019,3.766893,1,stops:008884327,0
stops:008884335,Quievrain,50.410103,3.68608,,,1
stops:008884335:0,Quievrain,50.410103,3.68608,,stops:008884335,0
stops:008884335:1,Quievrain,50.410103,3.68608,1,stops:008884335,0
stops:008884350,Thulin,50.423335,3.744708,,,1
stops:008884350:0,Thulin,50.423335,3.744708,,stops:008884350,0
stops:008884350:1,Thulin,50.423335,3.744708,1,stops:008884350,0
stops:008884541,Quaregnon,50.449827,3.856543,,,1
stops:008884541:0,Quaregnon,50.449827,3.856543,,stops:008884541,0
stops:008884541:1,Quaregnon,50.449827,3.856543,1,stops:008884541,0
stops:008884541:2,Quaregnon,50.449827,3.856543,2,stops:008884541,0
stops:008884566,Jemappes,50.452577,3.885587,,,1
stops:008884566:0,Jemappes,50.452577,3.885587,,stops:008884566,0
stops:008884566:1,Jemappes,50.452577,3.885587,1,stops:008884566,0
stops:008884566:2,Jemappes,50.452577,3.885587,2,stops:008884566,0
stops:008884632,Ville-Pommerœul,50.464542,3.724248,,,1
stops:008884632:0,Ville-Pommerœul,50.464542,3.724248,,stops:008884632,0
stops:008884632:1,Ville-Pommerœul,50.464542,3.724248,1,stops:008884632,0
stops:008884632:2,Ville-Pommerœul,50.464542,3.724248,2,stops:008884632,0
stops:008884640,Harchies,50.482565,3.698764,,,1
stops:008884640:0,Harchies,50.482565,3.698764,,stops:008884640,0
stops:008884640:1,Harchies,50.482565,3.698764,1,stops:008884640,0
stops:008884640:2,Harchies,50.482565,3.698764,2,stops:008884640,0
stops:008884715,Blaton,50.505461,3.666304,,,1
stops:008884715:0,Blaton,50.505461,3.666304,,stops:008884715,0
stops:008884715:1,Blaton,50.505461,3.666304,1,stops:008884715,0
stops:008884715:2,Blaton,50.505461,3.666304,2,stops:008884715,0
stops:008884855,Péruwelz,50.513704,3.592772,,,1
stops:008884855:0,Péruwelz,50.513704,3.592772,,stops:008884855,0
stops:008884855:1,Péruwelz,50.513704,3.592772,1,stops:008884855,0
stops:008884855:2,Péruwelz,50.513704,3.592772,2,stops:008884855,0
stops:008884889,Callenelle,50.527359,3.52618,,,1
stops:008884889:0,Callenelle,50.527359,3.52618,,stops:008884889,0
stops:008884889:1,Callenelle,50.527359,3.52618,1,stops:008884889,0
stops:008884889:2,Callenelle,50.527359,3.52618,2,stops:008884889,0
stops:008885001,Tournai,50.613134,3.396942,,,1
stops:008885001:0,Tournai,50.613134,3.396942,,stops:008885001,0
stops:008885001:1,Tournai,50.613134,3.396942,1,stops:008885001,0
stops:008885001:2,Tournai,50.613134,3.396942,2,stops:008885001,0
stops:008885001:3,Tournai,50.613134,3.396942,3,stops:008885001,0
stops:008885001:4,Tournai,50.613134,3.396942,4,stops:008885001,0
stops:008885001:5,Tournai,50.613134,3.396942,5,stops:008885001,0
stops:008885001:A,Tournai,50.613134,3.396942,A,stops:008885001,0
stops:008885068,Froyennes,50.62989,3.354837,,,1
stops:008885068:0,Froyennes,50.62989,3.354837,,stops:008885068,0
stops:008885068:1,Froyennes,50.62989,3.354837,1,stops:008885068,0
stops:008885068:2,Froyennes,50.62989,3.354837,2,stops:008885068,0
stops:008885522,Antoing,50.569626,3.451309,,,1
stops:008885522:0,Antoing,50.569626,3.451309,,stops:008885522,0
stops:008885522:1,Antoing,50.569626,3.451309,1,stops:008885522,0
stops:008885522:2,Antoing,50.569626,3.451309,2,stops:008885522,0
stops:008885530,Maubray,50.547557,3.495527,,,1
stops:008885530:0,Maubray,50.547557,3.495527,,stops:008885530,0
stops:008885530:1,Maubray,50.547557,3.495527,1,stops:008885530,0
stops:008885530:2,Maubray,50.547557,3.495527,2,stops:008885530,0
stops:008885704,Mouscron,50.741005,3.228448,,,1
stops:008885704:0,Mouscron,50.741005,3.228448,,stops:008885704,0
stops:008885704:1,Mouscron,50.741005,3.228448,1,stops:008885704,0
stops:008885704:2,Mouscron,50.741005,3.228448,2,stops:008885704,0
stops:008885704:3,Mouscron,50.741005,3.228448,3,stops:008885704,0
stops:008885704:4,Mouscron,50.741005,3.228448,4,stops:008885704,0
stops:008885753,Herseaux,50.713894,3.245959,,,1
stops:008885753:0,Herseaux,50.713894,3.245959,,stops:008885753,0
stops:008885753:1,Herseaux,50.713894,3.245959,1,stops:008885753,0
stops:008885753:2,Herseaux,50.713894,3.245959,2,stops:008885753,0
stops:008886009,Ath,50.626932,3.777429,,,1
stops:008886009:0,Ath,50.626932,3.777429,,stops:008886009,0
stops:008886009:1,Ath,50.626932,3.777429,1,stops:008886009,0
stops:008886009:2,Ath,50.626932,3.777429,2,stops:008886009,0
stops:008886009:3,Ath,50.626932,3.777429,3,stops:008886009,0
stops:008886009:4,Ath,50.626932,3.777429,4,stops:008886009,0
stops:008886041,Maffle,50.614356,3.800117,,,1
stops:008886041:0,Maffle,50.614356,3.800117,,stops:008886041,0
stops:008886041:1,Maffle,50.614356,3.800117,1,stops:008886041,0
stops:008886041:2,Maffle,50.614356,3.800117,2,stops:008886041,0
stops:008886058,Mevergnies-Attre,50.600108,3.833917,,,1
stops:008886058:0,Mevergnies-Attre,50.600108,3.833917,,stops:008886058,0
stops:008886058:1,Mevergnies-Attre,50.600108,3.833917,1,stops:008886058,0
stops:008886058:2,Mevergnies-Attre,50.600108,3.833917,2,stops:008886058,0
stops:008886066,Brugelette,50.594229,3.852551,,,1
stops:008886066:0,Brugelette,50.594229,3.852551,,stops:008886066,0
stops:008886066:1,Brugelette,50.594229,3.852551,1,stops:008886066,0
stops:008886066:2,Brugelette,50.594229,3.852551,2,stops:008886066,0
stops:008886074,Cambron-Casteau,50.586759,3.874809,,,1
stops:008886074:0,Cambron-Casteau,50.586759,3.874809,,stops:008886074,0
stops:008886074:1,Cambron-Casteau,50.586759,3.874809,1,stops:008886074,0
stops:008886074:2,Cambron-Casteau,50.586759,3.874809,2,stops:008886074,0
stops:008886348,Leuze,50.600612,3.616872,,,1
stops:008886348:0,Leuze,50.600612,3.616872,,stops:008886348,0
stops:008886348:1,Leuze,50.600612,3.616872,1,stops:008886348,0
stops:008886348:2,Leuze,50.600612,3.616872,2,stops:008886348,0
stops:008886504,Lessen,50.712015,3.836434,,,1
stops:008886504:0,Lessen,50.712015,3.836434,,stops:008886504,0
stops:008886504:1,Lessen,50.712015,3.836434,1,stops:008886504,0
stops:008886504:2,Lessen,50.712015,3.836434,2,stops:008886504,0
stops:008886504:3,Lessen,50.712015,3.836434,3,stops:008886504,0
stops:008886546,Acren,50.733095,3.847086,,,1
stops:008886546:0,Acren,50.733095,3.847086,,stops:008886546,0
stops:008886546:1,Acren,50.733095,3.847086,1,stops:008886546,0
stops:008886546:2,Acren,50.733095,3.847086,2,stops:008886546,0
stops:008886553,Houraing,50.703062,3.835175,,,1
stops:008886553:0,Houraing,50.703062,3.835175,,stops:008886553,0
stops:008886553:1,Houraing,50.703062,3.835175,1,stops:008886553,0
stops:008886553:2,Houraing,50.703062,3.835175,2,stops:008886553,0
stops:008886561,Papegem,50.686585,3.823408,,,1
stops:008886561:0,Papegem,50.686585,3.823408,,stops:008886561,0
stops:008886561:1,Papegem,50.686585,3.823408,1,stops:008886561,0
stops:008886561:2,Papegem,50.686585,3.823408,2,stops:008886561,0
stops:008886587,Rebaix,50.661235,3.793627,,,1
stops:008886587:0,Rebaix,50.661235,3.793627,,stops:008886587,0
stops:008886587:1,Rebaix,50.661235,3.793627,1,stops:008886587,0
stops:008886587:2,Rebaix,50.661235,3.793627,2,stops:008886587,0
stops:008891009,Brugge,51.197226,3.216726,,,1
stops:008891009:0,Brugge,51.197226,3.216726,,stops:008891009,0
stops:008891009:1,Brugge,51.197226,3.216726,1,stops:008891009,0
stops:008891009:2,Brugge,51.197226,3.216726,2,stops:008891009,0
stops:008891009:3,Brugge,51.197226,3.216726,3,stops:008891009,0
stops:008891009:4,Brugge,51.197226,3.216726,4,stops:008891009,0
stops:008891009:5,Brugge,51.197226,3.216726,5,stops:008891009,0
stops:008891009:6,Brugge,51.197226,3.216726,6,stops:008891009,0
stops:008891009:7,Brugge,51.197226,3.216726,7,stops:008891009,0
stops:008891009:8,Brugge,51.197226,3.216726,8,stops:008891009,0
stops:008891009:9,Brugge,51.197226,3.216726,9,stops:008891009,0
stops:008891009:10,Brugge,51.197226,3.216726,10,stops:008891009,0
stops:008891033,Brugge-Sint-Pieters,51.223115,3.201795,,,1
stops:008891033:0,Brugge-Sint-Pieters,51.223115,3.201795,,stops:008891033,0
stops:008891033:1,Brugge-Sint-Pieters,51.223115,3.201795,1,stops:008891033,0
stops:008891033:2,Brugge-Sint-Pieters,51.223115,3.201795,2,stops:008891033,0
stops:008891116,Oostkamp,51.154114,3.257466,,,1
stops:008891116:0,Oostkamp,51.154114,3.257466,,stops:008891116,0
stops:008891116:1,Oostkamp,51.154114,3.257466,1,stops:008891116,0
stops:008891116:2,Oostkamp,51.154114,3.257466,2,stops:008891116,0
stops:008891124,Beernem,51.128009,3.329892,,,1
stops:008891124:0,Beernem,51.128009,3.329892,,stops:008891124,0
stops:008891124:1,Beernem,51.128009,3.329892,1,stops:008891124,0
stops:008891124:2,Beernem,51.128009,3.329892,2,stops:008891124,0
stops:008891132,Maria-Aalter,51.107612,3.38673,,,1
stops:008891132:0,Maria-Aalter,51.107612,3.38673,,stops:008891132,0
stops:008891132:1,Maria-Aalter,51.107612,3.38673,1,stops:008891132,0
stops:008891132:2,Maria-Aalter,51.107612,3.38673,2,stops:008891132,0
stops:008891140,Aalter,51.092295,3.447848,,,1
stops:008891140:0,Aalter,51.092295,3.447848,,stops:008891140,0
stops:008891140:1,Aalter,51.092295,3.447848,1,stops:008891140,0
stops:008891140:2,Aalter,51.092295,3.447848,2,stops:008891140,0
stops:008891140:3,Aalter,51.092295,3.447848,3,stops:008891140,0
stops:008891140:4,Aalter,51.092295,3.447848,4,stops:008891140,0
stops:008891157,Bellem,51.083908,3.487374,,,1
stops:008891157:0,Bellem,51.083908,3.487374,,stops:008891157,0
stops:008891157:1,Bellem,51.083908,3.487374,1,stops:008891157,0
stops:008891157:2,Bellem,51.083908,3.487374,2,stops:008891157,0
stops:008891165,Hansbeke,51.073202,3.536212,,,1
stops:008891165:0,Hansbeke,51.073202,3.536212,,stops:008891165,0
stops:008891165:1,Hansbeke,51.073202,3.536212,1,stops:008891165,0
stops:008891165:2,Hansbeke,51.073202,3.536212,2,stops:008891165,0
stops:008891173,Zeebrugge-Strand,51.324549,3.186666,,,1
stops:008891173:0,Zeebrugge-Strand,51.324549,3.186666,,stops:008891173,0
stops:008891173:1,Zeebrugge-Strand,51.324549,3.186666,1,stops:008891173,0
stops:008891264,Zedelgem,51.127047,3.16414,,,1
stops:008891264:0,Zedelgem,51.127047,3.16414,,stops:008891264,0
stops:008891264:1,Zedelgem,51.127047,3.16414,1,stops:008891264,0
stops:008891264:2,Zedelgem,51.127047,3.16414,2,stops:008891264,0
stops:008891314,Torhout,51.064707,3.105871,,,1
stops:008891314:0,Torhout,51.064707,3.105871,,stops:008891314,0
stops:008891314:1,Torhout,51.064707,3.105871,1,stops:008891314,0
stops:008891314:2,Torhout,51.064707,3.105871,2,stops:008891314,0
stops:008891405,Blankenberge,51.312432,3.133864,,,1
stops:008891405:0,Blankenberge,51.312432,3.133864,,stops:008891405,0
stops:008891405:1,Blankenberge,51.312432,3.133864,1,stops:008891405,0
stops:008891405:2,Blankenberge,51.312432,3.133864,2,stops:008891405,0
stops:008891405:3,Blankenberge,51.312432,3.133864,3,stops:008891405,0
stops:008891405:4,Blankenberge,51.312432,3.133864,4,stops:008891405,0
stops:008891405:5,Blankenberge,51.312432,3.133864,5,stops:008891405,0
stops:008891405:6,Blankenberge,51.312432,3.133864,6,stops:008891405,0
stops:008891405:7,Blankenberge,51.312432,3.133864,7,stops:008891405,0
stops:008891553,Zeebrugge-Dorp,51.326383,3.19517,,,1
stops:008891553:0,Zeebrugge-Dorp,51.326383,3.19517,,stops:008891553,0
stops:008891611,Zwankendamme,51.306409,3.191557,,,1
stops:008891611:0,Zwankendamme,51.306409,3.191557,,stops:008891611,0
stops:008891629,Lissewege,51.294714,3.194505,,,1
stops:008891629:0,Lissewege,51.294714,3.194505,,stops:008891629,0
stops:008891629:1,Lissewege,51.294714,3.194505,1,stops:008891629,0
stops:008891629:2,Lissewege,51.294714,3.194505,2,stops:008891629,0
stops:008891645,Heist,51.333979,3.239181,,,1
stops:008891645:0,Heist,51.333979,3.239181,,stops:008891645,0
stops:008891645:1,Heist,51.333979,3.239181,1,stops:008891645,0
stops:008891645:2,Heist,51.333979,3.239181,2,stops:008891645,0
stops:008891652,Duinbergen,51.338195,3.263587,,,1
stops:008891652:0,Duinbergen,51.338195,3.263587,,stops:008891652,0
stops:008891652:1,Duinbergen,51.338195,3.263587,1,stops:008891652,0
stops:008891652:2,Duinbergen,51.338195,3.263587,2,stops:008891652,0
stops:008891660,Knokke,51.339894,3.285188,,,1
stops:008891660:0,Knokke,51.339894,3.285188,,stops:008891660,0
stops:008891660:1,Knokke,51.339894,3.285188,1,stops:008891660,0
stops:008891660:2,Knokke,51.339894,3.285188,2,stops:008891660,0
stops:008891660:3,Knokke,51.339894,3.285188,3,stops:008891660,0
stops:008891660:4,Knokke,51.339894,3.285188,4,stops:008891660,0
stops:008891702,Oostende,51.228212,2.925809,,,1
stops:008891702:0,Oostende,51.228212,2.925809,,stops:008891702,0
stops:008891702:1,Oostende,51.228212,2.925809,1,stops:008891702,0
stops:008891702:2,Oostende,51.228212,2.925809,2,stops:008891702,0
stops:008891702:3,Oostende,51.228212,2.925809,3,stops:008891702,0
stops:008891702:4,Oostende,51.228212,2.925809,4,stops:008891702,0
stops:008891702:5,Oostende,51.228212,2.925809,5,stops:008891702,0
stops:008891702:6,Oostende,51.228212,2.925809,6,stops:008891702,0
stops:008891702:7,Oostende,51.228212,2.925809,7,stops:008891702,0
stops:008891702:8,Oostende,51.228212,2.925809,8,stops:008891702,0
stops:008891702:9,Oostende,51.228212,2.925809,9,stops:008891702,0
stops:008891702:10,Oostende,51.228212,2.925809,10,stops:008891702,0
stops:008892007,Gent-Sint-Pieters,51.035896,3.710675,,,1
stops:008892007:0,Gent-Sint-Pieters,51.035896,3.710675,,stops:008892007,0
stops:008892007:1,Gent-Sint-Pieters,51.035896,3.710675,1,stops:008892007,0
stops:008892007:2,Gent-Sint-Pieters,51.035896,3.710675,2,stops:008892007,0
stops:008892007:3,Gent-Sint-Pieters,51.035896,3.710675,3,stops:008892007,0
stops:008892007:4,Gent-Sint-Pieters,51.035896,3.710675,4,stops:008892007,0
stops:008892007:5,Gent-Sint-Pieters,51.035896,3.710675,5,stops:008892007,0
stops:008892007:6,Gent-Sint-Pieters,51.035896,3.710675,6,stops:008892007,0
stops:008892007:7,Gent-Sint-Pieters,51.035896,3.710675,7,stops:008892007,0
stops:008892007:8,Gent-Sint-Pieters,51.035896,3.710675,8,stops:008892007,0
stops:008892007:9,Gent-Sint-Pieters,51.035896,3.710675,9,stops:008892007,0
stops:008892007:10,Gent-Sint-Pieters,51.035896,3.710675,10,stops:008892007,0
stops:008892007:11,Gent-Sint-Pieters,51.035896,3.710675,11,stops:008892007,0
stops:008892007:12,Gent-Sint-Pieters,51.035896,3.710675,12,stops:008892007,0
stops:008892031,Drongen,51.047295,3.655202,,,1
stops:008892031:0,Drongen,51.047295,3.655202,,stops:008892031,0
stops:008892031:1,Drongen,51.047295,3.655202,1,stops:008892031,0
stops:008892031:2,Drongen,51.047295,3.655202,2,stops:008892031,0
stops:008892056,Landegem,51.064311,3.576852,,,1
stops:008892056:0,Landegem,51.064311,3.576852,,stops:008892056,0
stops:008892056:1,Landegem,51.064311,3.576852,1,stops:008892056,0
stops:008892056:2,Landegem,51.064311,3.576852,2,stops:008892056,0
stops:008892056:3,Landegem,51.064311,3.576852,3,stops:008892056,0
stops:008892080,De Pinte,50.997063,3.650465,,,1
stops:008892080:0,De Pinte,50.997063,3.650465,,stops:008892080,0
stops:008892080:1,De Pinte,50.997063,3.650465,1,stops:008892080,0
stops:008892080:2,De Pinte,50.997063,3.650465,2,stops:008892080,0
stops:008892080:3,De Pinte,50.997063,3.650465,3,stops:008892080,0
stops:008892080:4,De Pinte,50.997063,3.650465,4,stops:008892080,0
stops:008892106,Deinze,50.978258,3.534432,,,1
stops:008892106:0,Deinze,50.978258,3.534432,,stops:008892106,0
stops:008892106:1,Deinze,50.978258,3.534432,1,stops:008892106,0
stops:008892106:2,Deinze,50.978258,3.534432,2,stops:008892106,0
stops:008892106:3,Deinze,50.978258,3.534432,3,stops:008892106,0
stops:008892106:4,Deinze,50.978258,3.534432,4,stops:008892106,0
stops:008892205,Lichtervelde,51.025163,3.127212,,,1
stops:008892205:0,Lichtervelde,51.025163,3.127212,,stops:008892205,0
stops:008892205:1,Lichtervelde,51.025163,3.127212,1,stops:008892205,0
stops:008892205:2,Lichtervelde,51.025163,3.127212,2,stops:008892205,0
stops:008892205:3,Lichtervelde,51.025163,3.127212,3,stops:008892205,0
stops:008892205:4,Lichtervelde,51.025163,3.127212,4,stops:008892205,0
stops:008892205:5,Lichtervelde,51.025163,3.127212,5,stops:008892205,0
stops:008892254,Tielt,50.990842,3.330341,,,1
stops:008892254:0,Tielt,50.990842,3.330341,,stops:008892254,0
stops:008892254:1,Tielt,50.990842,3.330341,1,stops:008892254,0
stops:008892254:2,Tielt,50.990842,3.330341,2,stops:008892254,0
stops:008892288,Aarsele,50.98446,3.418363,,,1
stops:008892288:0,Aarsele,50.98446,3.418363,,stops:008892288,0
stops:008892288:1,Aarsele,50.98446,3.418363,1,stops:008892288,0
stops:008892288:2,Aarsele,50.98446,3.418363,2,stops:008892288,0
stops:008892304,Veurne,51.073867,2.66994,,,1
stops:008892304:0,Veurne,51.073867,2.66994,,stops:008892304,0
stops:008892304:1,Veurne,51.073867,2.66994,1,stops:008892304,0
stops:008892304:2,Veurne,51.073867,2.66994,2,stops:008892304,0
stops:008892320,Koksijde,51.079197,2.65277,,,1
stops:008892320:0,Koksijde,51.079197,2.65277,,stops:008892320,0
stops:008892320:1,Koksijde,51.079197,2.65277,1,stops:008892320,0
stops:008892338,De Panne,51.0774,2.601963,,,1
stops:008892338:0,De Panne,51.0774,2.601963,,stops:008892338,0
stops:008892338:1,De Panne,51.0774,2.601963,1,stops:008892338,0
stops:008892338:2,De Panne,51.0774,2.601963,2,stops:008892338,0
stops:008892338:3,De Panne,51.0774,2.601963,3,stops:008892338,0
stops:008892403,Kortemark,51.025244,3.043459,,,1
stops:008892403:0,Kortemark,51.025244,3.043459,,stops:008892403,0
stops:008892403:1,Kortemark,51.025244,3.043459,1,stops:008892403,0
stops:008892403:2,Kortemark,51.025244,3.043459,2,stops:008892403,0
stops:008892452,Diksmuide,51.032723,2.868943,,,1
stops:008892452:0,Diksmuide,51.032723,2.868943,,stops:008892452,0
stops:008892452:1,Diksmuide,51.032723,2.868943,1,stops:008892452,0
stops:008892452:2,Diksmuide,51.032723,2.868943,2,stops:008892452,0
stops:008892601,Oudenaarde,50.850116,3.600386,,,1
stops:008892601:0,Oudenaarde,50.850116,3.600386,,stops:008892601,0
stops:008892601:1,Oudenaarde,50.850116,3.600386,1,stops:008892601,0
stops:008892601:2,Oudenaarde,50.850116,3.600386,2,stops:008892601,0
stops:008892601:3,Oudenaarde,50.850116,3.600386,3,stops:008892601,0
stops:008892601:4,Oudenaarde,50.850116,3.600386,4,stops:008892601,0
stops:008892601:5,Oudenaarde,50.850116,3.600386,5,stops:008892601,0
stops:008892627,Eine,50.870432,3.623776,,,1
stops:008892627:0,Eine,50.870432,3.623776,,stops:008892627,0
stops:008892627:1,Eine,50.870432,3.623776,1,stops:008892627,0
stops:008892635,Zingem,50.908025,3.646384,,,1
stops:008892635:0,Zingem,50.908025,3.646384,,stops:008892635,0
stops:008892635:1,Zingem,50.908025,3.646384,1,stops:008892635,0
stops:008892635:2,Zingem,50.908025,3.646384,2,stops:008892635,0
stops:008892643,Gavere-Asper,50.930021,3.639732,,,1
stops:008892643:0,Gavere-Asper,50.930021,3.639732,,stops:008892643,0
stops:008892643:1,Gavere-Asper,50.930021,3.639732,1,stops:008892643,0
stops:008892643:2,Gavere-Asper,50.930021,3.639732,2,stops:008892643,0
stops:008892650,Eke-Nazareth,50.960774,3.627839,,,1
stops:008892650:0,Eke-Nazareth,50.960774,3.627839,,stops:008892650,0
stops:008892650:1,Eke-Nazareth,50.960774,3.627839,1,stops:008892650,0
stops:008892692,Sint-Denijs-Boekel,50.874297,3.698395,,,1
stops:008892692:0,Sint-Denijs-Boekel,50.874297,3.698395,,stops:008892692,0
stops:008892692:1,Sint-Denijs-Boekel,50.874297,3.698395,1,stops:008892692,0
stops:008892692:2,Sint-Denijs-Boekel,50.874297,3.698395,2,stops:008892692,0
stops:008892734,Anzegem,50.826385,3.495014,,,1
stops:008892734:0,Anzegem,50.826385,3.495014,,stops:008892734,0
stops:008892734:1,Anzegem,50.826385,3.495014,1,stops:008892734,0
stops:008892734:2,Anzegem,50.826385,3.495014,2,stops:008892734,0
stops:008892908,Ronse,50.742506,3.602552,,,1
stops:008892908:0,Ronse,50.742506,3.602552,,stops:008892908,0
stops:008892908:1,Ronse,50.742506,3.602552,1,stops:008892908,0
stops:008893013,Merelbeke,51.017531,3.768889,,,1
stops:008893013:0,Merelbeke,51.017531,3.768889,,stops:008893013,0
stops:008893013:1,Merelbeke,51.017531,3.768889,1,stops:008893013,0
stops:008893013:2,Merelbeke,51.017531,3.768889,2,stops:008893013,0
stops:008893013:3,Merelbeke,51.017531,3.768889,3,stops:008893013,0
stops:008893039,Melle,51.002807,3.797088,,,1
stops:008893039:0,Melle,51.002807,3.797088,,stops:008893039,0
stops:008893039:1,Melle,51.002807,3.797088,1,stops:008893039,0
stops:008893039:2,Melle,51.002807,3.797088,2,stops:008893039,0
stops:008893047,Gontrode,50.980199,3.801672,,,1
stops:008893047:0,Gontrode,50.980199,3.801672,,stops:008893047,0
stops:008893047:1,Gontrode,50.980199,3.801672,1,stops:008893047,0
stops:008893047:2,Gontrode,50.980199,3.801672,2,stops:008893047,0
stops:008893054,Landskouter,50.970545,3.791146,,,1
stops:008893054:0,Landskouter,50.970545,3.791146,,stops:008893054,0
stops:008893054:1,Landskouter,50.970545,3.791146,1,stops:008893054,0
stops:008893054:2,Landskouter,50.970545,3.791146,2,stops:008893054,0
stops:008893062,Moortsele,50.953519,3.781339,,,1
stops:008893062:0,Moortsele,50.953519,3.781339,,stops:008893062,0
stops:008893062:1,Moortsele,50.953519,3.781339,1,stops:008893062,0
stops:008893062:2,Moortsele,50.953519,3.781339,2,stops:008893062,0
stops:008893070,Scheldewindeke,50.937069,3.777842,,,1
stops:008893070:0,Scheldewindeke,50.937069,3.777842,,stops:008893070,0
stops:008893070:1,Scheldewindeke,50.937069,3.777842,1,stops:008893070,0
stops:008893070:2,Scheldewindeke,50.937069,3.777842,2,stops:008893070,0
stops:008893120,Gent-Dampoort,51.056365,3.740591,,,1
stops:008893120:0,Gent-Dampoort,51.056365,3.740591,,stops:008893120,0
stops:008893120:1,Gent-Dampoort,51.056365,3.740591,1,stops:008893120,0
stops:008893120:2,Gent-Dampoort,51.056365,3.740591,2,stops:008893120,0
stops:008893179,Gentbrugge,51.038647,3.756322,,,1
stops:008893179:0,Gentbrugge,51.038647,3.756322,,stops:008893179,0
stops:008893179:1,Gentbrugge,51.038647,3.756322,1,stops:008893179,0
stops:008893179:2,Gentbrugge,51.038647,3.756322,2,stops:008893179,0
stops:008893211,Wondelgem,51.088357,3.719071,,,1
stops:008893211:0,Wondelgem,51.088357,3.719071,,stops:008893211,0
stops:008893211:1,Wondelgem,51.088357,3.719071,1,stops:008893211,0
stops:008893211:2,Wondelgem,51.088357,3.719071,2,stops:008893211,0
stops:008893252,Evergem,51.107585,3.70138,,,1
stops:008893252:0,Evergem,51.107585,3.70138,,stops:008893252,0
stops:008893252:1,Evergem,51.107585,3.70138,1,stops:008893252,0
stops:008893260,Sleidinge,51.126607,3.667526,,,1
stops:008893260:0,Sleidinge,51.126607,3.667526,,stops:008893260,0
stops:008893260:1,Sleidinge,51.126607,3.667526,1,stops:008893260,0
stops:008893401,Dendermonde,51.022781,4.101427,,,1
stops:008893401:0,Dendermonde,51.022781,4.101427,,stops:008893401,0
stops:008893401:1,Dendermonde,51.022781,4.101427,1,stops:008893401,0
stops:008893401:2,Dendermonde,51.022781,4.101427,2,stops:008893401,0
stops:008893401:3,Dendermonde,51.022781,4.101427,3,stops:008893401,0
stops:008893401:4,Dendermonde,51.022781,4.101427,4,stops:008893401,0
stops:008893401:5,Dendermonde,51.022781,4.101427,5,stops:008893401,0
stops:008893401:6,Dendermonde,51.022781,4.101427,6,stops:008893401,0
stops:008893401:7,Dendermonde,51.022781,4.101427,7,stops:008893401,0
stops:008893401:8,Dendermonde,51.022781,4.101427,8,stops:008893401,0
stops:008893401:9,Dendermonde,51.022781,4.101427,9,stops:008893401,0
stops:008893443,Sint-Gillis-Dendermonde,51.021693,4.117832,,,1
stops:008893443:0,Sint-Gillis-Dendermonde,51.021693,4.117832,,stops:008893443,0
stops:008893443:1,Sint-Gillis-Dendermonde,51.021693,4.117832,1,stops:008893443,0
stops:008893443:2,Sint-Gillis-Dendermonde,51.021693,4.117832,2,stops:008893443,0
stops:008893518,Oudegem,51.01523,4.064472,,,1
stops:008893518:0,Oudegem,51.01523,4.064472,,stops:008893518,0
stops:008893518:1,Oudegem,51.01523,4.064472,1,stops:008893518,0
stops:008893518:2,Oudegem,51.01523,4.064472,2,stops:008893518,0
stops:008893526,Schoonaarde,51.003149,4.011094,,,1
stops:008893526:0,Schoonaarde,51.003149,4.011094,,stops:008893526,0
stops:008893526:1,Schoonaarde,51.003149,4.011094,1,stops:008893526,0
stops:008893526:2,Schoonaarde,51.003149,4.011094,2,stops:008893526,0
stops:008893534,Wichelen,51.001962,3.969195,,,1
stops:008893534:0,Wichelen,51.001962,3.969195,,stops:008893534,0
stops:008893534:1,Wichelen,51.001962,3.969195,1,stops:008893534,0
stops:008893534:2,Wichelen,51.001962,3.969195,2,stops:008893534,0
stops:008893542,Schellebelle,51.003149,3.921373,,,1
stops:008893542:0,Schellebelle,51.003149,3.921373,,stops:008893542,0
stops:008893542:1,Schellebelle,51.003149,3.921373,1,stops:008893542,0
stops:008893542:2,Schellebelle,51.003149,3.921373,2,stops:008893542,0
stops:008893559,Wetteren,51.001603,3.881883,,,1
stops:008893559:0,Wetteren,51.001603,3.881883,,stops:008893559,0
stops:008893559:1,Wetteren,51.001603,3.881883,1,stops:008893559,0
stops:008893559:2,Wetteren,51.001603,3.881883,2,stops:008893559,0
stops:008893567,Kwatrecht,50.99175,3.829593,,,1
stops:008893567:0,Kwatrecht,50.99175,3.829593,,stops:008893567,0
stops:008893567:1,Kwatrecht,50.99175,3.829593,1,stops:008893567,0
stops:008893567:2,Kwatrecht,50.99175,3.829593,2,stops:008893567,0
stops:008893583,Serskamp,50.984397,3.959361,,,1
stops:008893583:0,Serskamp,50.984397,3.959361,,stops:008893583,0
stops:008893583:1,Serskamp,50.984397,3.959361,1,stops:008893583,0
stops:008893583:2,Serskamp,50.984397,3.959361,2,stops:008893583,0
stops:008893708,Eeklo,51.181333,3.574515,,,1
stops:008893708:0,Eeklo,51.181333,3.574515,,stops:008893708,0
stops:008893708:1,Eeklo,51.181333,3.574515,1,stops:008893708,0
stops:008893708:2,Eeklo,51.181333,3.574515,2,stops:008893708,0
stops:008893708:3,Eeklo,51.181333,3.574515,3,stops:008893708,0
stops:008893815,Waarschoot,51.154608,3.615353,,,1
stops:008893815:0,Waarschoot,51.154608,3.615353,,stops:008893815,0
stops:008893815:1,Waarschoot,51.154608,3.615353,1,stops:008893815,0
stops:008894151,Beervelde,51.08753,3.879384,,,1
stops:008894151:0,Beervelde,51.08753,3.879384,,stops:008894151,0
stops:008894151:1,Beervelde,51.08753,3.879384,1,stops:008894151,0
stops:008894151:2,Beervelde,51.08753,3.879384,2,stops:008894151,0
stops:008894201,Lokeren,51.108062,3.987794,,,1
stops:008894201:0,Lokeren,51.108062,3.987794,,stops:008894201,0
stops:008894201:1,Lokeren,51.108062,3.987794,1,stops:008894201,0
stops:008894201:2,Lokeren,51.108062,3.987794,2,stops:008894201,0
stops:008894201:3,Lokeren,51.108062,3.987794,3,stops:008894201,0
stops:008894201:4,Lokeren,51.108062,3.987794,4,stops:008894201,0
stops:008894235,Zele,51.073256,4.041999,,,1
stops:008894235:0,Zele,51.073256,4.041999,,stops:008894235,0
stops:008894235:1,Zele,51.073256,4.041999,1,stops:008894235,0
stops:008894235:2,Zele,51.073256,4.041999,2,stops:008894235,0
stops:008894425,Sinaai,51.143398,4.06894,,,1
stops:008894425:0,Sinaai,51.143398,4.06894,,stops:008894425,0
stops:008894425:1,Sinaai,51.143398,4.06894,1,stops:008894425,0
stops:008894425:2,Sinaai,51.143398,4.06894,2,stops:008894425,0
stops:008894433,Belsele,51.150994,4.088608,,,1
stops:008894433:0,Belsele,51.150994,4.088608,,stops:008894433,0
stops:008894433:1,Belsele,51.150994,4.088608,1,stops:008894433,0
stops:008894433:2,Belsele,51.150994,4.088608,2,stops:008894433,0
stops:008894508,Sint-Niklaas,51.171472,4.142966,,,1
stops:008894508:0,Sint-Niklaas,51.171472,4.142966,,stops:008894508,0
stops:008894508:1,Sint-Niklaas,51.171472,4.142966,1,stops:008894508,0
stops:008894508:2,Sint-Niklaas,51.171472,4.142966,2,stops:008894508,0
stops:008894508:3,Sint-Niklaas,51.171472,4.142966,3,stops:008894508,0
stops:008894508:4,Sint-Niklaas,51.171472,4.142966,4,stops:008894508,0
stops:008894672,Temse,51.126085,4.221352,,,1
stops:008894672:0,Temse,51.126085,4.221352,,stops:008894672,0
stops:008894714,Nieuwkerken-Waas,51.185612,4.185907,,,1
stops:008894714:0,Nieuwkerken-Waas,51.185612,4.185907,,stops:008894714,0
stops:008894714:1,Nieuwkerken-Waas,51.185612,4.185907,1,stops:008894714,0
stops:008894714:2,Nieuwkerken-Waas,51.185612,4.185907,2,stops:008894714,0
stops:008894748,Beveren,51.208336,4.25952,,,1
stops:008894748:0,Beveren,51.208336,4.25952,,stops:008894748,0
stops:008894748:1,Beveren,51.208336,4.25952,1,stops:008894748,0
stops:008894748:2,Beveren,51.208336,4.25952,2,stops:008894748,0
stops:008894755,Melsele,51.21071,4.286766,,,1
stops:008894755:0,Melsele,51.21071,4.286766,,stops:008894755,0
stops:008894755:1,Melsele,51.21071,4.286766,1,stops:008894755,0
stops:008894755:2,Melsele,51.21071,4.286766,2,stops:008894755,0
stops:008894821,Zwijndrecht,51.214108,4.32978,,,1
stops:008894821:0,Zwijndrecht,51.214108,4.32978,,stops:008894821,0
stops:008894821:1,Zwijndrecht,51.214108,4.32978,1,stops:008894821,0
stops:008894821:2,Zwijndrecht,51.214108,4.32978,2,stops:008894821,0
stops:008895000,Aalst,50.942813,4.039653,,,1
stops:008895000:0,Aalst,50.942813,4.039653,,stops:008895000,0
stops:008895000:1,Aalst,50.942813,4.039653,1,stops:008895000,0
stops:008895000:2,Aalst,50.942813,4.039653,2,stops:008895000,0
stops:008895000:3,Aalst,50.942813,4.039653,3,stops:008895000,0
stops:008895000:4,Aalst,50.942813,4.039653,4,stops:008895000,0
stops:008895000:5,Aalst,50.942813,4.039653,5,stops:008895000,0
stops:008895000:6,Aalst,50.942813,4.039653,6,stops:008895000,0
stops:008895067,Lede,50.970895,3.984981,,,1
stops:008895067:0,Lede,50.970895,3.984981,,stops:008895067,0
stops:008895067:1,Lede,50.970895,3.984981,1,stops:008895067,0
stops:008895067:2,Lede,50.970895,3.984981,2,stops:008895067,0
stops:008895091,Erembodegem,50.919621,4.055447,,,1
stops:008895091:0,Erembodegem,50.919621,4.055447,,stops:008895091,0
stops:008895091:1,Erembodegem,50.919621,4.055447,1,stops:008895091,0
stops:008895091:2,Erembodegem,50.919621,4.055447,2,stops:008895091,0
stops:008895125,Aalst-Kerrebroek,50.948377,4.024407,,,1
stops:008895125:0,Aalst-Kerrebroek,50.948377,4.024407,,stops:008895125,0
stops:008895208,Zottegem,50.869102,3.81441,,,1
stops:008895208:0,Zottegem,50.869102,3.81441,,stops:008895208,0
stops:008895208:1,Zottegem,50.869102,3.81441,1,stops:008895208,0
stops:008895208:2,Zottegem,50.869102,3.81441,2,stops:008895208,0
stops:008895208:3,Zottegem,50.869102,3.81441,3,stops:008895208,0
stops:008895208:4,Zottegem,50.869102,3.81441,4,stops:008895208,0
stops:008895208:5,Zottegem,50.869102,3.81441,5,stops:008895208,0
stops:008895208:6,Zottegem,50.869102,3.81441,6,stops:008895208,0
stops:008895232,Munkzwalm,50.875673,3.733238,,,1
stops:008895232:0,Munkzwalm,50.875673,3.733238,,stops:008895232,0
stops:008895232:1,Munkzwalm,50.875673,3.733238,1,stops:008895232,0
stops:008895232:2,Munkzwalm,50.875673,3.733238,2,stops:008895232,0
stops:008895240,Balegem-Zuid,50.90051,3.80587,,,1
stops:008895240:0,Balegem-Zuid,50.90051,3.80587,,stops:008895240,0
stops:008895240:1,Balegem-Zuid,50.90051,3.80587,1,stops:008895240,0
stops:008895240:2,Balegem-Zuid,50.90051,3.80587,2,stops:008895240,0
stops:008895257,Balegem-Dorp,50.919612,3.791425,,,1
stops:008895257:0,Balegem-Dorp,50.919612,3.791425,,stops:008895257,0
stops:008895257:1,Balegem-Dorp,50.919612,3.791425,1,stops:008895257,0
stops:008895257:2,Balegem-Dorp,50.919612,3.791425,2,stops:008895257,0
stops:008895422,Hillegem,50.891296,3.857469,,,1
stops:008895422:0,Hillegem,50.891296,3.857469,,stops:008895422,0
stops:008895422:1,Hillegem,50.891296,3.857469,1,stops:008895422,0
stops:008895422:2,Hillegem,50.891296,3.857469,2,stops:008895422,0
stops:008895430,Herzele,50.89722,3.880616,,,1
stops:008895430:0,Herzele,50.89722,3.880616,,stops:008895430,0
stops:008895430:1,Herzele,50.89722,3.880616,1,stops:008895430,0
stops:008895430:2,Herzele,50.89722,3.880616,2,stops:008895430,0
stops:008895448,Terhagen,50.901643,3.896653,,,1
stops:008895448:0,Terhagen,50.901643,3.896653,,stops:008895448,0
stops:008895448:1,Terhagen,50.901643,3.896653,1,stops:008895448,0
stops:008895448:2,Terhagen,50.901643,3.896653,2,stops:008895448,0
stops:008895455,Burst,50.907198,3.922416,,,1
stops:008895455:0,Burst,50.907198,3.922416,,stops:008895455,0
stops:008895455:1,Burst,50.907198,3.922416,1,stops:008895455,0
stops:008895455:2,Burst,50.907198,3.922416,2,stops:008895455,0
stops:008895463,Bambrugge,50.913769,3.935711,,,1
stops:008895463:0,Bambrugge,50.913769,3.935711,,stops:008895463,0
stops:008895471,Erpe-Mere,50.928601,3.962463,,,1
stops:008895471:0,Erpe-Mere,50.928601,3.962463,,stops:008895471,0
stops:008895489,Vijfhuizen,50.943254,3.98125,,,1
stops:008895489:0,Vijfhuizen,50.943254,3.98125,,stops:008895489,0
stops:008895505,Geraardsbergen,50.771137,3.872328,,,1
stops:008895505:0,Geraardsbergen,50.771137,3.872328,,stops:008895505,0
stops:008895505:1,Geraardsbergen,50.771137,3.872328,1,stops:008895505,0
stops:008895505:2,Geraardsbergen,50.771137,3.872328,2,stops:008895505,0
stops:008895505:3,Geraardsbergen,50.771137,3.872328,3,stops:008895505,0
stops:008895505:4,Geraardsbergen,50.771137,3.872328,4,stops:008895505,0
stops:008895570,Lierde,50.816236,3.826564,,,1
stops:008895570:0,Lierde,50.816236,3.826564,,stops:008895570,0
stops:008895570:1,Lierde,50.816236,3.826564,1,stops:008895570,0
stops:008895570:2,Lierde,50.816236,3.826564,2,stops:008895570,0
stops:008895612,Viane-Moerbeke,50.751981,3.917337,,,1
stops:008895612:0,Viane-Moerbeke,50.751981,3.917337,,stops:008895612,0
stops:008895612:1,Viane-Moerbeke,50.751981,3.917337,1,stops:008895612,0
stops:008895612:2,Viane-Moerbeke,50.751981,3.917337,2,stops:008895612,0
stops:008895620,Galmaarden,50.743918,3.965726,,,1
stops:008895620:0,Galmaarden,50.743918,3.965726,,stops:008895620,0
stops:008895620:1,Galmaarden,50.743918,3.965726,1,stops:008895620,0
stops:008895620:2,Galmaarden,50.743918,3.965726,2,stops:008895620,0
stops:008895638,Tollembeek,50.735522,3.992828,,,1
stops:008895638:0,Tollembeek,50.735522,3.992828,,stops:008895638,0
stops:008895638:1,Tollembeek,50.735522,3.992828,1,stops:008895638,0
stops:008895638:2,Tollembeek,50.735522,3.992828,2,stops:008895638,0
stops:008895646,Herne,50.723701,4.014573,,,1
stops:008895646:0,Herne,50.723701,4.014573,,stops:008895646,0
stops:008895646:1,Herne,50.723701,4.014573,1,stops:008895646,0
stops:008895646:2,Herne,50.723701,4.014573,2,stops:008895646,0
stops:008895711,Schendelbeke,50.797844,3.899286,,,1
stops:008895711:0,Schendelbeke,50.797844,3.899286,,stops:008895711,0
stops:008895711:1,Schendelbeke,50.797844,3.899286,1,stops:008895711,0
stops:008895711:2,Schendelbeke,50.797844,3.899286,2,stops:008895711,0
stops:008895729,Idegem,50.801871,3.921553,,,1
stops:008895729:0,Idegem,50.801871,3.921553,,stops:008895729,0
stops:008895729:1,Idegem,50.801871,3.921553,1,stops:008895729,0
stops:008895729:2,Idegem,50.801871,3.921553,2,stops:008895729,0
stops:008895737,Zandbergen,50.806986,3.957653,,,1
stops:008895737:0,Zandbergen,50.806986,3.957653,,stops:008895737,0
stops:008895737:1,Zandbergen,50.806986,3.957653,1,stops:008895737,0
stops:008895737:2,Zandbergen,50.806986,3.957653,2,stops:008895737,0
stops:008895745,Appelterre,50.813063,3.972108,,,1
stops:008895745:0,Appelterre,50.813063,3.972108,,stops:008895745,0
stops:008895745:1,Appelterre,50.813063,3.972108,1,stops:008895745,0
stops:008895745:2,Appelterre,50.813063,3.972108,2,stops:008895745,0
stops:008895752,Eichem,50.823994,3.993745,,,1
stops:008895752:0,Eichem,50.823994,3.993745,,stops:008895752,0
stops:008895752:1,Eichem,50.823994,3.993745,1,stops:008895752,0
stops:008895752:2,Eichem,50.823994,3.993745,2,stops:008895752,0
stops:008895760,Ninove,50.839509,4.026133,,,1
stops:008895760:0,Ninove,50.839509,4.026133,,stops:008895760,0
stops:008895760:1,Ninove,50.839509,4.026133,1,stops:008895760,0
stops:008895760:2,Ninove,50.839509,4.026133,2,stops:008895760,0
stops:008895778,Okegem,50.857712,4.054557,,,1
stops:008895778:0,Okegem,50.857712,4.054557,,stops:008895778,0
stops:008895778:1,Okegem,50.857712,4.054557,1,stops:008895778,0
stops:008895778:2,Okegem,50.857712,4.054557,2,stops:008895778,0
stops:008895802,Denderleeuw,50.891925,4.071825,,,1
stops:008895802:0,Denderleeuw,50.891925,4.071825,,stops:008895802,0
stops:008895802:1,Denderleeuw,50.891925,4.071825,1,stops:008895802,0
stops:008895802:2,Denderleeuw,50.891925,4.071825,2,stops:008895802,0
stops:008895802:3,Denderleeuw,50.891925,4.071825,3,stops:008895802,0
stops:008895802:4,Denderleeuw,50.891925,4.071825,4,stops:008895802,0
stops:008895802:5,Denderleeuw,50.891925,4.071825,5,stops:008895802,0
stops:008895802:6,Denderleeuw,50.891925,4.071825,6,stops:008895802,0
stops:008895802:7,Denderleeuw,50.891925,4.071825,7,stops:008895802,0
stops:008895802:8,Denderleeuw,50.891925,4.071825,8,stops:008895802,0
stops:008895802:9,Denderleeuw,50.891925,4.071825,9,stops:008895802,0
stops:008895836,Liedekerke,50.882531,4.095287,,,1
stops:008895836:0,Liedekerke,50.882531,4.095287,,stops:008895836,0
stops:008895836:1,Liedekerke,50.882531,4.095287,1,stops:008895836,0
stops:008895836:2,Liedekerke,50.882531,4.095287,2,stops:008895836,0
stops:008895836:3,Liedekerke,50.882531,4.095287,3,stops:008895836,0
stops:008895836:4,Liedekerke,50.882531,4.095287,4,stops:008895836,0
stops:008895844,Iddergem,50.876886,4.06849,,,1
stops:008895844:0,Iddergem,50.876886,4.06849,,stops:008895844,0
stops:008895844:1,Iddergem,50.876886,4.06849,1,stops:008895844,0
stops:008895844:2,Iddergem,50.876886,4.06849,2,stops:008895844,0
stops:008895851,Welle,50.903279,4.05062,,,1
stops:008895851:0,Welle,50.903279,4.05062,,stops:008895851,0
stops:008895851:1,Welle,50.903279,4.05062,1,stops:008895851,0
stops:008895851:2,Welle,50.903279,4.05062,2,stops:008895851,0
stops:008895869,Haaltert,50.906838,4.023958,,,1
stops:008895869:0,Haaltert,50.906838,4.023958,,stops:008895869,0
stops:008895869:1,Haaltert,50.906838,4.023958,1,stops:008895869,0
stops:008895869:2,Haaltert,50.906838,4.023958,2,stops:008895869,0
stops:008895877,Ede,50.911054,3.987524,,,1
stops:008895877:0,Ede,50.911054,3.987524,,stops:008895877,0
stops:008895877:1,Ede,50.911054,3.987524,1,stops:008895877,0
stops:008895877:2,Ede,50.911054,3.987524,2,stops:008895877,0
stops:008896008,Kortrijk,50.824506,3.264549,,,1
stops:008896008:0,Kortrijk,50.824506,3.264549,,stops:008896008,0
stops:008896008:1,Kortrijk,50.824506,3.264549,1,stops:008896008,0
stops:008896008:2,Kortrijk,50.824506,3.264549,2,stops:008896008,0
stops:008896008:3,Kortrijk,50.824506,3.264549,3,stops:008896008,0
stops:008896008:4,Kortrijk,50.824506,3.264549,4,stops:008896008,0
stops:008896008:5,Kortrijk,50.824506,3.264549,5,stops:008896008,0
stops:008896008:6,Kortrijk,50.824506,3.264549,6,stops:008896008,0
stops:008896008:7,Kortrijk,50.824506,3.264549,7,stops:008896008,0
stops:008896115,Harelbeke,50.85586,3.314008,,,1
stops:008896115:0,Harelbeke,50.85586,3.314008,,stops:008896115,0
stops:008896115:1,Harelbeke,50.85586,3.314008,1,stops:008896115,0
stops:008896115:2,Harelbeke,50.85586,3.314008,2,stops:008896115,0
stops:008896149,Waregem,50.892456,3.42551,,,1
stops:008896149:0,Waregem,50.892456,3.42551,,stops:008896149,0
stops:008896149:1,Waregem,50.892456,3.42551,1,stops:008896149,0
stops:008896149:2,Waregem,50.892456,3.42551,2,stops:008896149,0
stops:008896230,Vichte,50.833657,3.39163,,,1
stops:008896230:0,Vichte,50.833657,3.39163,,stops:008896230,0
stops:008896230:1,Vichte,50.833657,3.39163,1,stops:008896230,0
stops:008896230:2,Vichte,50.833657,3.39163,2,stops:008896230,0
stops:008896305,Menen,50.799489,3.113791,,,1
stops:008896305:0,Menen,50.799489,3.113791,,stops:008896305,0
stops:008896305:1,Menen,50.799489,3.113791,1,stops:008896305,0
stops:008896305:2,Menen,50.799489,3.113791,2,stops:008896305,0
stops:008896305:3,Menen,50.799489,3.113791,3,stops:008896305,0
stops:008896370,Wevelgem,50.811526,3.18352,,,1
stops:008896370:0,Wevelgem,50.811526,3.18352,,stops:008896370,0
stops:008896370:1,Wevelgem,50.811526,3.18352,1,stops:008896370,0
stops:008896370:2,Wevelgem,50.811526,3.18352,2,stops:008896370,0
stops:008896388,Bissegem,50.825845,3.224205,,,1
stops:008896388:0,Bissegem,50.825845,3.224205,,stops:008896388,0
stops:008896388:1,Bissegem,50.825845,3.224205,1,stops:008896388,0
stops:008896388:2,Bissegem,50.825845,3.224205,2,stops:008896388,0
stops:008896396,Wervik,50.781861,3.046983,,,1
stops:008896396:0,Wervik,50.781861,3.046983,,stops:008896396,0
stops:008896396:1,Wervik,50.781861,3.046983,1,stops:008896396,0
stops:008896396:2,Wervik,50.781861,3.046983,2,stops:008896396,0
stops:008896412,Comines,50.772072,2.999286,,,1
stops:008896412:0,Comines,50.772072,2.999286,,stops:008896412,0
stops:008896412:1,Comines,50.772072,2.999286,1,stops:008896412,0
stops:008896412:2,Comines,50.772072,2.999286,2,stops:008896412,0
stops:008896503,Ieper,50.847402,2.876593,,,1
stops:008896503:0,Ieper,50.847402,2.876593,,stops:008896503,0
stops:008896503:1,Ieper,50.847402,2.876593,1,stops:008896503,0
stops:008896735,Poperinge,50.854449,2.736343,,,1
stops:008896735:0,Poperinge,50.854449,2.736343,,stops:008896735,0
stops:008896735:1,Poperinge,50.854449,2.736343,1,stops:008896735,0
stops:008896735:2,Poperinge,50.854449,2.736343,2,stops:008896735,0
stops:008896735:3,Poperinge,50.854449,2.736343,3,stops:008896735,0
stops:008896800,Roeselare,50.949025,3.130412,,,1
stops:008896800:0,Roeselare,50.949025,3.130412,,stops:008896800,0
stops:008896800:1,Roeselare,50.949025,3.130412,1,stops:008896800,0
stops:008896800:2,Roeselare,50.949025,3.130412,2,stops:008896800,0
stops:008896909,Izegem,50.921149,3.212088,,,1
stops:008896909:0,Izegem,50.921149,3.212088,,stops:008896909,0
stops:008896909:1,Izegem,50.921149,3.212088,1,stops:008896909,0
stops:008896909:2,Izegem,50.921149,3.212088,2,stops:008896909,0
stops:008896925,Ingelmunster,50.914326,3.255416,,,1
stops:008896925:0,Ingelmunster,50.914326,3.255416,,stops:008896925,0
stops:008896925:1,Ingelmunster,50.914326,3.255416,1,stops:008896925,0
stops:008896925:2,Ingelmunster,50.914326,3.255416,2,stops:008896925,0
stops:008895000:7,Aalst,50.942813,4.039653,7,stops:008895000,0
stops:008821600:5,Lier,51.135758,4.560614,5,stops:008821600,0
stops:008885704:5,Mouscron,50.741005,3.228448,5,stops:008885704,0
stops:008811007:15,Schaarbeek/Schaerbeek,50.878513,4.378636,15,stops:008811007,0
stops:008892908:3,Ronse,50.742506,3.602552,3,stops:008892908,0
stops:008895505:5,Geraardsbergen,50.771137,3.872328,5,stops:008895505,0
stops:008882206:5,La Louvière-Sud,50.464974,4.190609,5,stops:008882206,0
stops:008894508:A,Sint-Niklaas,51.171472,4.142966,A,stops:008894508,0
stops:008894672:1,Temse,51.126085,4.221352,1,stops:008894672,0
stops:008822772:1,Bornem,51.099225,4.240526,1,stops:008822772,0
stops:008884335:2,Quievrain,50.410103,3.68608,2,stops:008884335,0
stops:008843240:1,Engis,50.582957,5.401986,1,stops:008843240,0
stops:008843349:2,Haute-Flône,50.55349,5.330333,2,stops:008843349,0
stops:008843331:2,Amay,50.546011,5.32049,2,stops:008843331,0
stops:008843323:2,Ampsin,50.539215,5.289729,2,stops:008843323,0
stops:008881166:5,Jurbeke,50.530496,3.910694,5,stops:008881166,0
stops:008894672:2,Temse,51.126085,4.221352,2,stops:008894672,0
stops:008894508:5,Sint-Niklaas,51.171472,4.142966,5,stops:008894508,0
stops:008892106:5,Deinze,50.978258,3.534432,5,stops:008892106,0
stops:008896008:8,Kortrijk,50.824506,3.264549,8,stops:008896008,0
stops:008894201:A,Lokeren,51.108062,3.987794,A,stops:008894201,0
stops:008881505:004279,Quevy,50.341534,3.909489,004279,stops:008881505,0
stops:008863842:4,Houyet,50.189868,5.006074,4,stops:008863842,0
stops:008812252:3,Ternat,50.874522,4.16534,3,stops:008812252,0
stops:008871217:5,Roux,50.443112,4.393199,5,stops:008871217,0
stops:008842630:2,Tilff,50.570624,5.583937,2,stops:008842630,0
stops:008842648:2,Méry,50.54762,5.587236,2,stops:008842648,0
stops:008842655:2,Hony,50.539917,5.573563,2,stops:008842655,0
stops:008842663:2,Esneux,50.530568,5.572565,2,stops:008842663,0
stops:008844206:4,Pepinster,50.568179,5.80615,4,stops:008844206,0
stops:008861127:3,Flawinne,50.456236,4.806298,3,stops:008861127,0
stops:008896800:3,Roeselare,50.949025,3.130412,3,stops:008896800,0
stops:008874005:5,Châtelet,50.410103,4.521861,5,stops:008874005,0
stops:008843307:4,Huy,50.527242,5.234211,4,stops:008843307,0
stops:008893013:4,Merelbeke,51.017531,3.768889,4,stops:008893013,0
stops:008891553:1,Zeebrugge-Dorp,51.326383,3.19517,1,stops:008891553,0
stops:008895505:A,Geraardsbergen,50.771137,3.872328,A,stops:008895505,0
stops:008843323:1,Ampsin,50.539215,5.289729,1,stops:008843323,0
stops:008843331:1,Amay,50.546011,5.32049,1,stops:008843331,0
stops:008843349:1,Haute-Flône,50.55349,5.330333,1,stops:008843349,0
stops:008843240:2,Engis,50.582957,5.401986,2,stops:008843240,0
stops:008843208:5,Flemalle-Haute,50.595308,5.457656,5,stops:008843208,0
stops:008821717:A,Herentals,51.181513,4.829535,A,stops:008821717,0
stops:008833209:5,Aarschot,50.984406,4.824043,5,stops:008833209,0
stops:008881505:2,Quevy,50.341534,3.909489,2,stops:008881505,0
stops:008895208:7,Zottegem,50.869102,3.81441,7,stops:008895208,0
stops:008886009:5,Ath,50.626932,3.777429,5,stops:008886009,0
stops:008814258:4,Braine-l'Alleud,50.684778,4.375526,4,stops:008814258,0
stops:008884715:3,Blaton,50.505461,3.666304,3,stops:008884715,0
stops:008821832:3,Heist-op-den-Berg,51.074146,4.708235,3,stops:008821832,0
stops:008831401:3,Diest,50.993341,5.050031,3,stops:008831401,0
stops:008896503:3,Ieper,50.847402,2.876593,3,stops:008896503,0
stops:008832615:3,Neerpelt,51.222369,5.43717,3,stops:008832615,0
stops:008845005:3,Gouvy,50.189409,5.953906,3,stops:008845005,0
stops:008821337:4,Hove,51.154114,4.465157,4,stops:008821337,0
stops:008864915:1,Natoye,50.343296,5.06116,1,stops:008864915,0
stops:008821337:3,Hove,51.154114,4.465157,3,stops:008821337,0
stops:008864436:2,Melreux-Hotton,50.28367,5.440136,2,stops:008864436,0
stops:008886348:3,Leuze,50.600612,3.616872,3,stops:008886348,0
stops:008873122:1a,Philippeville,50.191639,4.535956,1a,stops:008873122,0
stops:008873122:1b,Philippeville,50.191639,4.535956,1b,stops:008873122,0
stops:008875127:2,Couvin,50.056324,4.491702,2,stops:008875127,0
stops:008895455:3,Burst,50.907198,3.922416,3,stops:008895455,0
stops:008895463:1,Bambrugge,50.913769,3.935711,1,stops:008895463,0
stops:008895471:1,Erpe-Mere,50.928601,3.962463,1,stops:008895471,0
stops:008895489:1,Vijfhuizen,50.943254,3.98125,1,stops:008895489,0
stops:008895125:1,Aalst-Kerrebroek,50.948377,4.024407,1,stops:008895125,0
stops:008881505:004282,Quevy,50.341534,3.909489,004282,stops:008881505,0
stops:008814001:,Brussel-Zuid/Bruxelles-Midi,50.835707,4.336531,,stops:008814001,0
